[
    {
        "name": "G.B. Pant Hospital Blood bank",
        "address": "Atlanta Point Near Cellular Jail P.O. Aberdeen Bazaar",
        "contact": "03192 230628",
        "latitude": 11.675442,
        "longitude": 92.747338
    },
    {
        "name": "I.N.H.S. Dhanvantri",
        "address": "Ashvini Nagar, Port Blair, Andaman and Nicobar Islands.",
        "contact": "03192 248759",
        "latitude": 11.649693,
        "longitude": 92.717418
    },
    {
        "name": "Pillar Health Centre Blood Bank",
        "address": "Lamba Line, P.B. 526, P.O. Junglighat,  Opposite Airport",
        "contact": "03192 233193, 03192 233993",
        "latitude": 11.653229,
        "longitude": 92.730714
    },
    {
        "name": "Indian Red Cross Society Blood Bank, District Branch",
        "address": "Near JNTU Engeneering College, Sarada Nagar, Ananthapur.",
        "contact": "08554 246344",
        "latitude": 14.654936,
        "longitude": 77.609915
    },
    {
        "name": "Government General Hospital Blood Bank",
        "address": "Government General Hospital, Ananthapur",
        "contact": "08554 275024",
        "latitude": 14.671459,
        "longitude": 77.596684
    },
    {
        "name": "Indian Red Cross Society",
        "address": "Blood Bank Medical Officer,Blood Bank, Indian Red Cross Society, Anantpur",
        "contact": 8554246344,
        "latitude": 14.681888,
        "longitude": 77.600591
    },
    {
        "name": "Rural Development Trust Hospital Blood Bank",
        "address": "Kadiri Road, Bathalapalli, Ananthapur",
        "contact": "08559 244259",
        "latitude": 14.652907,
        "longitude": 77.618826
    },
    {
        "name": "South Central Railway Hospital Blood Bank",
        "address": "S.C. Railway Hospital, Guntakal, Ananthapuramu",
        "contact": "08552 227166",
        "latitude": 15.172889,
        "longitude": 77.366103
    },
    {
        "name": "Indian Red Cross Society Blood Bank",
        "address": "Government General Hospital Blood Bank, Hindupur, Ananthapur",
        "contact": "08556 225900",
        "latitude": 13.832533,
        "longitude": 77.492214
    },
    {
        "name": "Indian Red Cross Society Blood bank RCH -II KADIRI",
        "address": "Ground Floor, APVVP (Government General Hospital) Area Hospital, Kadiri, Ananthapur",
        "contact": "08494 221544",
        "latitude": 14.113089,
        "longitude": 78.157366
    },
    {
        "name": "S.S.S.I.H.M.S. Blood Bank",
        "address": "Prasanthigram, Puttaparthy, Ananthapuramu",
        "contact": "08555 287900",
        "latitude": 14.151889,
        "longitude": 77.77685
    },
    {
        "name": "Indian Red Cross Society",
        "address": "The Secretary, Indian Red Cross Society, D:No:20-119, PH Road, Redcross Building, Chittoor 517 001, Andhra Pradesh Dr.M.V.Narayana Reddy (MO), Ph:08572 220287",
        "contact": 8572220287,
        "latitude": 13.217176,
        "longitude": 79.100329
    },
    {
        "name": "M/s IRCS Blood Bank.",
        "address": "D.No. 20 - 119, Prakasam High Road, Chittor",
        "contact": "08572 220287",
        "latitude": 13.21698,
        "longitude": 79.100764
    },
    {
        "name": "M/s PESIMSR Blood Bank.",
        "address": "PES Institute of medical sciences premises, Kuppam",
        "contact": "08570 256737",
        "latitude": 12.791223,
        "longitude": 78.363897
    },
    {
        "name": "Blood Bank AH Madanapalli",
        "address": "The Blood Bank Medical Officer, Area Hospital, Patel Road, Madanapalli 517 325, Chittoor Dist. , Andhra pradesh Dr.Laxmiprasadreddy9(M.O)",
        "contact": 8571222087,
        "latitude": 13.217176,
        "longitude": 79.100329
    },
    {
        "name": "Indian Red Cross Society, Madanapalli RCH 2",
        "address": "Area Hospital, Patel Road, Madanapalli.",
        "contact": "08571 222087",
        "latitude": 13.556927,
        "longitude": 78.50085
    },
    {
        "name": "Aswini Hospital Blood Bank, TTD",
        "address": "Tirumala Tirupati Devastanam (TTD), Tirumala, Chittoor",
        "contact": 9490651605,
        "latitude": 13.677292,
        "longitude": 79.3487
    },
    {
        "name": "SVRRGGH - Model Blood Bank",
        "address": "S.V.R.R. Government General Hospital, Tirupati",
        "contact": "0877 2286290",
        "latitude": 13.644382,
        "longitude": 79.407003
    },
    {
        "name": "Sri Venkateswara Institute of Medical sciences Blood Bank",
        "address": "Sri Venkateswara Institute of Medical Sciences (SVIMS) Campus, Tirupati",
        "contact": "0877 2287777",
        "latitude": 13.637934,
        "longitude": 79.403917
    },
    {
        "name": "TTD Central Hospital Blood Bank",
        "address": "Tirumala Tirupati Devastanam (TTD), Kapil Teertham Road, Tirupati",
        "contact": "0877 2264622",
        "latitude": 13.642148,
        "longitude": 79.421067
    },
    {
        "name": "M/S. Kims & Research Foundation, Hospital Blood Bank",
        "address": "Kims & Research Foundation, Hospital Blood Bank, Sy.No:813 & 817, Kamanagaruvu, Near Red Bridge, Amalapuram.",
        "contact": "08856 237996, 08856 237997, 08856 237998",
        "latitude": 16.592169,
        "longitude": 82.024025
    },
    {
        "name": "M/s. Government General Hospital, Blood Bank.",
        "address": "Government General Premises, Ground Floor, Kakinada",
        "contact": "0884 2302008",
        "latitude": 16.955537,
        "longitude": 82.22748
    },
    {
        "name": "M/s. Indian Red Cross Society Blood Bank",
        "address": "D.No: 8-14-39, Ground & 1st  Floor, Red Cross Street, Gandhi Nagar, Kakinada",
        "contact": "0884 2385800",
        "latitude": 16.989065,
        "longitude": 82.247465
    },
    {
        "name": "M/s. Rotary Blood Bank (Rotary Club Golden Jubilee Charitable Trust)",
        "address": "Second Floor, D.No:15-8-3, Brahmarishi Road, Satya Prasanna Nagar, Kakinada",
        "contact": "0884 2367366,",
        "latitude": 16.955721,
        "longitude": 82.2384023
    },
    {
        "name": "M/s. G. S. L. Medical College General Hospital Blood Bank",
        "address": "No-16, Lakshmi Puram, Rajanagaram, Rajahmundry.",
        "contact": "0883 2484999",
        "latitude": 17.0665153,
        "longitude": 81.8828986
    },
    {
        "name": "M/S. Dhanwantari Voluntary Blood Bank.",
        "address": "D.No:46-21-1,2nd Floor, Danavaiepeta, Rajahmundry",
        "contact": "0833-2473050",
        "latitude": 17.00787,
        "longitude": 81.785213
    },
    {
        "name": "M/s. Government Area General Hospital Blood Bank.",
        "address": "M/s.Government Area Hospital Blood Bank, Area hospital, Tuni",
        "contact": "08854 252333",
        "latitude": 17.354937,
        "longitude": 82.541241
    },
    {
        "name": "Government General Hospital Blood Bank",
        "address": "Opposite to Railway Station, 1st Floor, C/o Government General Hospital, Guntur.",
        "contact": "0863 2220035 (Ext No: 280)",
        "latitude": 16.299747,
        "longitude": 80.443689
    },
    {
        "name": "Indian Red Cross Society Blood Bank",
        "address": "Zilla Parishad Compound, Nagarampalem, GUNTUR",
        "contact": "0863 2215656",
        "latitude": 16.306653,
        "longitude": 80.43654
    },
    {
        "name": "Lions Club of Guntur Vision Blood Bank",
        "address": "1st Floor, Somuvari Street, Kothapeta, Guntur",
        "contact": "0863 2336198, 0863 2336199",
        "latitude": 16.2992824,
        "longitude": 80.4503521
    },
    {
        "name": "M/s. Needs Blood Bank",
        "address": "1st Floor, Honda Show Room Building, Opposite Doctor Plaza, Kothapeta",
        "contact": "0863 6638222, 0863 6639222",
        "latitude": 16.29882,
        "longitude": 80.448888
    },
    {
        "name": "Saint Joseph General Hospital Blood Bank",
        "address": "Opposite to Andhra Christian College, Near Flyover, Main Road, Guntur",
        "contact": "0863 2322700, 0863 2320386",
        "latitude": 16.297514,
        "longitude": 80.440648
    },
    {
        "name": "NTR Memorial Trust Blood Bank",
        "address": "Door No. 13-2-87, 1st Line G. V. Thota",
        "contact": "0863 2339444",
        "latitude": 16.2968931,
        "longitude": 80.4499274
    },
    {
        "name": "Katuri Medical College and Hospital Blood Bank",
        "address": "Katuri Nagar, Chinakondrupadu, Guntur",
        "contact": "0863 2288555, 0863 2288556 (Ext No. 234)",
        "latitude": 16.227872,
        "longitude": 80.30947
    },
    {
        "name": "NRI Medical College and General Hospital Blood Bank",
        "address": "Mangalagiri Mandalam, Chinakakani, Guntur",
        "contact": "08645 236777, 08645 237401, 08645 230101",
        "latitude": 16.413675,
        "longitude": 80.555675
    },
    {
        "name": "Manipal Hospital Bloodbank",
        "address": "Soumyanagar, Tadepalli, Guntur",
        "contact": "0866 2489700 (Ext No.102)",
        "latitude": 16.484433,
        "longitude": 80.617219
    },
    {
        "name": "Indian Red Cross Society Blood Bank. Narassraopet",
        "address": "Area Hospital, Narasaraopeta",
        "contact": 8647224455,
        "latitude": 16.235919,
        "longitude": 80.048412
    },
    {
        "name": "NRT Blood Bank",
        "address": "GBR Super Speciality Hospital, 10-1-10/1, Palnadu Road, Narasaraopeta",
        "contact": 9542628888,
        "latitude": 16.193331,
        "longitude": 80.019956
    },
    {
        "name": "Anjireddy Multi Specality Blood Bank",
        "address": "Gaganamma Temple, Piduguralla",
        "contact": "08649 254567",
        "latitude": 16.478789,
        "longitude": 79.893642
    },
    {
        "name": "Red Cross Blood Bank",
        "address": "Government Hospital Premises  Repalle-522265  Guntur Dist,A.P",
        "contact": "08648 223939",
        "latitude": 16.017425,
        "longitude": 80.829475
    },
    {
        "name": "Rudhira Voluntary Blood Bank",
        "address": "D.No. 7-5-56, KRR Complex, 1st Floor, Opposite ASN college, Prakasam Road, Ganganammapeta, Tenali",
        "contact": "08644 231222, 08644 654123",
        "latitude": 16.243428,
        "longitude": 80.646397
    },
    {
        "name": "Area Hospital Blood Bank",
        "address": "Gudivada",
        "contact": "08674 245040",
        "latitude": 16.349045,
        "longitude": 81.049715
    },
    {
        "name": "Dr. Pattabhi Red Cross Blood Bank",
        "address": "DM & HO Campus, Machilipatnam",
        "contact": "08672 230605",
        "latitude": 16.190546,
        "longitude": 81.136154
    },
    {
        "name": "Government General Hospital (Repeated)",
        "address": "Government General Hospital, Ramavarapadu, Vijayawada - 520007",
        "contact": 9866686760,
        "latitude": 16.513339,
        "longitude": 80.618989
    },
    {
        "name": "Government District Headquarters Hospital machilipatnam blood bank",
        "address": "Machilipatnam",
        "contact": "08672 245040",
        "latitude": 16.176867,
        "longitude": 81.138647
    },
    {
        "name": "Rotary Red Cross Blood Bank",
        "address": "H.No: 26-5-5, G.S Raju Street, Gandhinagar, Vijayawada - 520003. Krishna District",
        "contact": "0866 2570082, 0866 6464002",
        "latitude": 16.506174,
        "longitude": 80.648015
    },
    {
        "name": "Vijaya Sri Blood Bank",
        "address": "VijayaSri Palace,D. No. 29-19-27/4, Ground Floor, First Floor and Second Floor, Dornakal Road, Suryaraopet, Vijayawada",
        "contact": "0866 2433199",
        "latitude": 16.51304,
        "longitude": 80.635644
    },
    {
        "name": "Lions Blood Bank",
        "address": "D. No. 29-19-85, 1st & 2nd Floor,Old Janatha Hospital Building, Dornakal Road, Suryaraopet, Vijayawada",
        "contact": "0866 2434417",
        "latitude": 16.506174,
        "longitude": 80.648015
    },
    {
        "name": "University General Hospital Blood Bank",
        "address": "Ring Road, Gunadala, Vijayawada",
        "contact": "0866 2452244, 0866 2453488",
        "latitude": 16.516111,
        "longitude": 80.670085
    },
    {
        "name": "M/s. Chaitanya Blood Bank",
        "address": "40-9/1-26, Vasavya Complex, Benz Circle, Vijayawada",
        "contact": "0866 2497977, 0866 645977",
        "latitude": 16.498839,
        "longitude": 80.655488
    },
    {
        "name": "Nagarjuna Hospital Blood Bank",
        "address": "Kanuru, Vijayawada",
        "contact": "0866 2554701",
        "latitude": 16.4948205,
        "longitude": 80.6891524
    },
    {
        "name": "Rotary Red Cross Blood Bank (Repeated)",
        "address": "26-5-5, G.S. Raju Road, Vijayawada",
        "contact": 2570082,
        "latitude": 16.525942,
        "longitude": 80.634075
    },
    {
        "name": "Dr. Pinnamaneni Siddhartha Insitiute of Medical Sciences & Research Foundation (Dr.P.SIMS & RF) Blood Bank",
        "address": "Chinnaoutapalli.",
        "contact": "08676 257311",
        "latitude": 16.551655,
        "longitude": 80.832047
    },
    {
        "name": "Bethesda Blood Bank",
        "address": "29-10-2, Ground Floor, Narsimharao Street, Suryaraopet, Vijayawada",
        "contact": "0866 2435888",
        "latitude": 16.512971,
        "longitude": 80.632664
    },
    {
        "name": "Smt CH. Manju Vani Vara Prasad, Lions District 316D Blood Bank",
        "address": "H.No.29-4-54K, Conan Dhanvoda Anantham Complex, Prakasam Road, Suryaraopet, Vijayawada",
        "contact": "0866 2573636",
        "latitude": 16.510309,
        "longitude": 80.63251
    },
    {
        "name": "Suraksha Voluntary Blood Bank",
        "address": "29-10-8, Govinda Rajulu Naidu Street, Suryaraopet, Vijayawada",
        "contact": "0866 2434499",
        "latitude": 16.51343,
        "longitude": 80.632861
    },
    {
        "name": "M/s. Indian Red Cross Society Blood Bank",
        "address": "Opposite Ravi Theatre, D.M & H.O Compound, Beside Control Room, Kurnool",
        "contact": "08518 255347",
        "latitude": 15.816357,
        "longitude": 78.040317
    },
    {
        "name": "M/s. Viswa Bharathi General Hospital Blood Bank",
        "address": "2nd Floor, R. T. Nagar, Near Penchikalapadu (v) Kallur (m), Kurnool",
        "contact": "08518 283964",
        "latitude": 15.8132734,
        "longitude": 78.0380988
    },
    {
        "name": "M/s. Viswa Bharathi Blood Bank",
        "address": "D. No. 50/760-A-127-13,1st Floor (O.P. Block), Gayathri Estate, Kurnool.",
        "contact": "08518 22294",
        "latitude": 15.8137967,
        "longitude": 78.037619
    },
    {
        "name": "M/s. R.R. Hospital Blood Bank",
        "address": "D.No.40-304-10, 2nd Floor, Bhagya Nagar, Kurnool",
        "contact": "08518 223131",
        "latitude": 15.82872,
        "longitude": 78.035743
    },
    {
        "name": "District Hospital Blood Bank",
        "address": "District Hospital, Noonepalli, Nandyal, Kurnool",
        "contact": 8514221033,
        "latitude": 15.469336,
        "longitude": 78.482935
    },
    {
        "name": "M/s. Area Hospital Blood Bank",
        "address": "Ground Floor, Room No.10, Area Hospital, Chirala, Prakasam",
        "contact": 8520026320,
        "latitude": 15.825971,
        "longitude": 80.36127
    },
    {
        "name": "Indian Red Cross Society Blood bank",
        "address": "A.P.V.P. Area Hospital, Cumbum Road, Markapur",
        "contact": "08596 223485",
        "latitude": 15.736154,
        "longitude": 79.269125
    },
    {
        "name": "M/s. RIMS General Hospital Blood Bank",
        "address": "C/o. RIMS General Hospital , D.No. 8-5-2/A, Opposite Bapuji Kalamandir, Bhagya Nagar, 5th Lane, Ongole",
        "contact": 8592233310,
        "latitude": 15.487882,
        "longitude": 80.047144
    },
    {
        "name": "Indian Red Cross Society Blood Bank",
        "address": "IRCS Blood Bank, Railway Station Road, SanthaPeta, Ongole, Prakasam",
        "contact": "08592 236093",
        "latitude": 15.505723,
        "longitude": 80.049922
    },
    {
        "name": "M/s. Life Line Volunytary Blood Bank",
        "address": "D. No.37-1-169/54, 2nd Floor, Sundharaiah Bhavan Raod, Ongole.",
        "contact": 9247023117,
        "latitude": 15.481367,
        "longitude": 80.05908
    },
    {
        "name": "M/s. Belief Blood Bank",
        "address": "3rd Floor, Sai Complex, Addanki Bus Stop, Ongole",
        "contact": "08592 222345",
        "latitude": 15.481367,
        "longitude": 80.05908
    },
    {
        "name": "M/s. Kanamarlapudi Koteswara Rao Indian Red Cross Society Blood Bank",
        "address": "Survey No.1083/3, R.D. Office Compound, Kavali",
        "contact": "08626 244766",
        "latitude": 14.913181,
        "longitude": 79.99298
    },
    {
        "name": "Indian Red Cross Society Blood Bank",
        "address": "Indian Red Cross Society (IRCS) Road, Madras Bus stand, Nellore",
        "contact": "0861 2320470",
        "latitude": 14.426777,
        "longitude": 79.959008
    },
    {
        "name": "D.S.R. Headquarters Hospital Blood Bank",
        "address": "Government Hospital Compound, Nellore",
        "contact": "0861 2349277",
        "latitude": 14.4365036,
        "longitude": 79.999432
    },
    {
        "name": "Narayana Medical College & Hospital Blood Bank",
        "address": "Narayana Hospital compound, Nellore",
        "contact": "0861 2317963",
        "latitude": 14.442599,
        "longitude": 79.986456
    },
    {
        "name": "GMR Varalakshmi Care Hospital Blood Bank",
        "address": "GMR Varalakshmi Care Hospital Premises, GMR Nagar, Rajam",
        "contact": "08941 253183, 08941 253184",
        "latitude": 18.461272,
        "longitude": 83.658352
    },
    {
        "name": "Rajiv Gandhi Institute of Medical Sciences (RIMS) General Hospital Blood Bank",
        "address": "RIMS Government Hospital Premises, Balaga, Srikakulam",
        "contact": "08942 279679",
        "latitude": 18.312884,
        "longitude": 83.887717
    },
    {
        "name": "Indian Red Cross Society (IRCS) Blood Bank",
        "address": "D.No. 8-5-2/A, Opposite to Bapuji Kalamandir, Srikakulam",
        "contact": "08942 226555, 08942 226111",
        "latitude": 18.296359,
        "longitude": 83.894549
    },
    {
        "name": "M/s. NTR Area Hospital Blood Bank",
        "address": "APVVP Hospital Premises, Anakapalli, Visakhapatnam",
        "contact": "08924 223340",
        "latitude": 17.686427,
        "longitude": 83.218576
    },
    {
        "name": "M/s. Visakha Steel General Hospital Blood Bank",
        "address": "Ukkunagaram, Steel Plant, Visakhapatnam",
        "contact": "0891 2887722",
        "latitude": 17.662908,
        "longitude": 83.144127
    },
    {
        "name": "M/s. INHS Kalyani Blood Bank",
        "address": "INHS Kalyani Hospital, Gandhigram (PO), Visakhapatnam",
        "contact": "0891 2814028",
        "latitude": 17.6871271,
        "longitude": 83.2505089
    },
    {
        "name": "M/s. Anil Neerukonda Hospital  Blood Bank",
        "address": "Sangivalasa, Bheemunipatnam (M), Visakhapatnam District",
        "contact": "8912821111 (Exte. No. 126)",
        "latitude": 17.97256,
        "longitude": 83.432338
    },
    {
        "name": "M/s. King George Hospital (KGH) Blood Bank",
        "address": "King George Hospital, Maharanipeta, Visakhapatnam",
        "contact": "0891 2564891",
        "latitude": 17.70667,
        "longitude": 83.303737
    },
    {
        "name": "M/s. Government Victoria Hospital Blood Bank",
        "address": "Women & Children Hospital Blood Bank, Visakhapatnam",
        "contact": "0891 2562637",
        "latitude": 17.686816,
        "longitude": 83.218482
    },
    {
        "name": "M/s. Indian Red Cross Society Blood Bank",
        "address": "D.No:14-35-4, Behind Collecorate, Z..P. Junction, Maharanipeta, Visakhapatnam",
        "contact": "0891 2703953",
        "latitude": 17.686816,
        "longitude": 83.218482
    },
    {
        "name": "M/s. Rotary Blood Bank (Vishaka Port City Rotary Charitable Trust)",
        "address": "D.No: 13-26-2/54, 3rd Floor, Apuroopa Arcade, Near Jagadamba Junction, Maharanipeta, Vishakapatnam",
        "contact": "0891 6534635, 0891 2506678",
        "latitude": 17.686816,
        "longitude": 83.218482
    },
    {
        "name": "M/s. Apollo Hospital Heart & Kidney Centre Blood Bank",
        "address": "D.No.10-50-80, 1st Floor, Apollo Hospital, Waltair Main Road, Visakhapatnam.",
        "contact": "0891 2727272",
        "latitude": 17.717084,
        "longitude": 83.309208
    },
    {
        "name": "M/s. Seven Hills Hospital Blood Bank",
        "address": "D.No.11-4-4/A, 5th Floor, Rock Dale Layout, Waltair MainRoad, Visakhapatnam",
        "contact": "0891 6677777",
        "latitude": 17.71737,
        "longitude": 83.309268
    },
    {
        "name": "A. S. Raja Voluntary Blood Bank",
        "address": "D.No. 10-50-11/5, Ground Floor, 1st, 2nd and 3rd Floor, Beside CARE Hospital, Waltair Main Road, Ramnagar, Visakhapatnam",
        "contact": "0891 2543436,0891 6663436,0891 6644936.",
        "latitude": 17.720274,
        "longitude": 83.313048
    },
    {
        "name": "M/s. Lions Club of Visakhapatnam Blod Bank Trust",
        "address": "D. No.10-54-7, Lions Community Hall, Ram Nagar, Visakhapatnam",
        "contact": "0891 6692587, 0891 6692580, 0891 6692590",
        "latitude": 17.719063,
        "longitude": 83.311286
    },
    {
        "name": "M/s. N.T.R. Memorial Trust Blood Bank",
        "address": "P. No. 15B-3-1, Block No. 56, Waltair Main Road, Ramnagar, Visakhapatnam",
        "contact": "0891 2565858, 0891 2555858",
        "latitude": 17.691575,
        "longitude": 83.238891
    },
    {
        "name": "M/s. Gitam Institute of Medical Sciences and Research Blood Bank",
        "address": "D.No.5-168, Ward No.6, Gitam University, Rushikonda, Visakhapatnam",
        "contact": "0891 2524777",
        "latitude": 17.784938,
        "longitude": 83.374975
    },
    {
        "name": "M/s. Gayatri Vidya Parishad Institute of Health Care and Medical Technology",
        "address": "D. No.6-25, Maridi Valley, Marikavalasa, Madhurawada, Vishakapatnam",
        "contact": "0891 2793741, 0891 2590131",
        "latitude": 17.689433,
        "longitude": 83.211615
    },
    {
        "name": "Indian Red Cross Society Blood Bank, RCH-II",
        "address": "Area Hospital Premises, First Floor, Belagam, Parvathipuram",
        "contact": "08963 222088",
        "latitude": 18.781716,
        "longitude": 83.426752
    },
    {
        "name": "Indian Red Cross Society Blood Bank",
        "address": "D.No. 71/82, Near Ganesh Temple, Cantonment,  Vizianagaram",
        "contact": "08922 272700",
        "latitude": 18.106658,
        "longitude": 83.395551
    },
    {
        "name": "Maharaja Institute of Medical Sciences Blood Bank",
        "address": "D.No. 31-15, Nellimarla, Vizianagaram",
        "contact": "08922 244394",
        "latitude": 18.1460163,
        "longitude": 83.4424491
    },
    {
        "name": "ASN Raju Charitable Trust Blood Bank",
        "address": "D.No. 24-1-1, R.K. Plaza (Sarovar complex), J. P. Raod, Bhimavaram",
        "contact": "08816 225556",
        "latitude": 16.54391,
        "longitude": 81.516237
    },
    {
        "name": "Uddaraju Anandaraju Foundation Blood Bank",
        "address": "D.No. 27-8-21/2, Sivaraopet, Bhimavaram",
        "contact": "08816 230888, 08816 230878",
        "latitude": 16.543064,
        "longitude": 81.515731
    },
    {
        "name": "M/s. Government Headquarters Hospital Blood Bank",
        "address": "Government Headquarters Hospital, Ground Floor, R.R. Peta, Eluru, West Godavari",
        "contact": "08812 220333",
        "latitude": 17.006153,
        "longitude": 81.782132
    },
    {
        "name": "M/s. Indian Red Cross Society Component Blood Bank",
        "address": "General Hospital Premises, Eluru, West Godavai",
        "contact": "08812 224722",
        "latitude": 16.711919,
        "longitude": 81.094839
    },
    {
        "name": "M/s. Alluri Sitrarama Raju Academy of Medical Sciences Blood Bank",
        "address": "Ground Floor, Hospital Block, NH 5 Eluru, West Godavari",
        "contact": "08812 288288, 08812 288299",
        "latitude": 16.737395,
        "longitude": 81.146494
    },
    {
        "name": "M/s. Good Samaritan Blood Bank",
        "address": "D.No.13-1, Good Samaritan Cancer and General Hospital, Vangayagudem, Eluru, West Godavari",
        "contact": "08812 246430, 08812 246947",
        "latitude": 18.179738,
        "longitude": 83.39551
    },
    {
        "name": "M/s. Indian Red Cross Society Blood Bank jangareddi gudem",
        "address": "Government Hospital Premises, Jangareddygudem",
        "contact": "08821 225305",
        "latitude": 17.125307,
        "longitude": 81.273907
    },
    {
        "name": "Indian Red Cross Society Blood Bank narasapuram",
        "address": "C/o. Community Healthcare Center, Narsapuram",
        "contact": "08814 276656",
        "latitude": 16.45196,
        "longitude": 81.680205
    },
    {
        "name": "Palakol Voluntary Blood Bank",
        "address": "D.No. 47-1-12/2C, 1st floor, Beside Chamber of Commerce Building, Srinivasa Deluxe, Palakol",
        "contact": "08814 222678",
        "latitude": 16.517455,
        "longitude": 81.725342
    },
    {
        "name": "Indian Red Cross Society Blood Bank Tanuku  (Repeated)",
        "address": "IRCS Sub Branch Doorno 27-14-9, Dodipatlavari Street,  Tanuku, West Godavari District",
        "contact": 8819221184,
        "latitude": 16.757173,
        "longitude": 81.679963
    },
    {
        "name": "Dr. Mulla Pudi Harischandra Prasad Red Cross Blood Bank",
        "address": "D.No.27-14-9, Doddipatla Vari Street, Tanuku.",
        "contact": "08819 221184",
        "latitude": 16.757173,
        "longitude": 81.679963
    },
    {
        "name": "Sri Buddala Narasimhamurty Voluntary Blood Bank",
        "address": "D.No.34-4/5, Ground Floor, Supriya Towers, Tanuku",
        "contact": "08819 225269",
        "latitude": 16.414033,
        "longitude": 80.647085
    },
    {
        "name": "Rajiv Gandhi Institute of Medical Sciences Blood Bank",
        "address": "Blood Bank Medical Officer, O.P. Block Ground Floor, Blood Bank, RIMS General Hospital,Puttlampalli, Kadapa ( RIMS, Kadapa).",
        "contact": "08562 225665",
        "latitude": 15.133392,
        "longitude": 78.514102
    },
    {
        "name": "Indian Red Cross Society, Blood Bank",
        "address": "D.No. 10-971, Opposite to Mattipedda Puli, Trunk Road, Kadapa",
        "contact": "08562 272829",
        "latitude": 14.467354,
        "longitude": 78.824134
    },
    {
        "name": "Fathima Institute of Medical Sciences Blood Bank",
        "address": "Ramarajupalli, Pulivendula Road Kadapa",
        "contact": "08562 200505, 08562 200092",
        "latitude": 14.4803398,
        "longitude": 78.8001296
    },
    {
        "name": "Ramakrishna Mission Hospital Blood bank",
        "address": "Ramakrishna Mission Hospital  P.O. Ramakrishna Mission Itanagar,",
        "contact": "0360-221 2263, 221 8780",
        "latitude": 27.086178,
        "longitude": 93.609065
    },
    {
        "name": "Upper Siang District Hospital Blood Bank",
        "address": "District Hospital, Yingkiong, Upper Siang District,  Arunachal Pradesh.",
        "contact": "03777 222545",
        "latitude": 28.641662,
        "longitude": 95.025348
    },
    {
        "name": "Fakhruddin Ali Ahmed (FAA) Medical College Hospital Blood Bank",
        "address": "Ground Floor  Fakhruddin Ali Ahmed Medical College, Jotigaon, Jania Road. Opposite to Chaulkhowa River",
        "contact": "03665 252088",
        "latitude": 26.323792,
        "longitude": 90.986661
    },
    {
        "name": "Bongaigaon Civil Hospital Blood Bank",
        "address": "Main Road, Mayapuri,Bongaigaon",
        "contact": "03664 228103",
        "latitude": 26.456671,
        "longitude": 90.560234
    },
    {
        "name": "Lower Assam Hospital Blood Bank",
        "address": "Chapaguri Road, North Bongaigaon",
        "contact": 3664230465,
        "latitude": 26.492861,
        "longitude": 90.551479
    },
    {
        "name": "Silchar Medical College and Hospital Blood Bank",
        "address": "Krishnapur Medical Road, Ghungoor, Silchar",
        "contact": "03842 229103",
        "latitude": 24.775578,
        "longitude": 92.794251
    },
    {
        "name": "Barak Blood Bank and Clinical Research Centre",
        "address": "Central Rd, Tarapur, Kanakpur Part-II",
        "contact": "03842 222 185",
        "latitude": 24.808015,
        "longitude": 92.795242
    },
    {
        "name": "Bongaigaon Refinery (BRPL) Hospital Blood Bank",
        "address": "BRPL Refinery, iocl/bgr township",
        "contact": "03664254669, 03664253253",
        "latitude": 26.510577,
        "longitude": 90.522683
    },
    {
        "name": "Mangaldoi Civil Hospital Blood Bank",
        "address": "Mangaldoi Civil Hospital, NH 52, Mangaldoi, Darrang",
        "contact": "03713 222024",
        "latitude": 26.437551,
        "longitude": 92.036395
    },
    {
        "name": "Dhubri Civil Hospital Blood Bank",
        "address": "Jhagrarpar, Dhubri",
        "contact": "0366 223 2558, 03662 230959",
        "latitude": 26.034365,
        "longitude": 89.963554
    },
    {
        "name": "Assam Medical College and Hospital Blood Bank",
        "address": "Barbari, Dibrugarh",
        "contact": 3732303731,
        "latitude": 27.486985,
        "longitude": 94.944179
    },
    {
        "name": "Dr. Damani&#39;s Nursing Home Blood Bank",
        "address": "L.G.B. Avenue, Near Circuit House",
        "contact": "0373 2300928",
        "latitude": 27.4898858,
        "longitude": 94.9229632
    },
    {
        "name": "Aditya Diagnostic Hospital Blood Bank",
        "address": "Bordoloi Avenue, Dibrugarh",
        "contact": "0373 2302219, 0373 2302220",
        "latitude": 27.491383,
        "longitude": 94.931116
    },
    {
        "name": "Sri Manta Sankardeva Hospital and Research Centre Blood Bank",
        "address": "Chowkindinge, Mancotta Road",
        "contact": "00373 2327717, 0373 2327715",
        "latitude": 27.472971,
        "longitude": 94.911391
    },
    {
        "name": "Oil India Limited Hospital Blood Bank",
        "address": "Oil Hospital, Duliajan",
        "contact": "0374 2806356",
        "latitude": 27.359192,
        "longitude": 95.323648
    },
    {
        "name": "Haflong Civil Hospital Blood Bank",
        "address": "NH 54, Songpijaang, Haflong",
        "contact": "03673 236 555",
        "latitude": 25.165653,
        "longitude": 93.024831
    },
    {
        "name": "Goalpara Civil Hospital Blood Bank",
        "address": "Agia Road, Goalpara",
        "contact": "03663240337, 03663 243800",
        "latitude": 26.142267,
        "longitude": 90.610584
    },
    {
        "name": "Solace Hospital and Research centre Pvt.Ltd Blood bank",
        "address": "BOC Agia Road Road, P.O. Baladmari Opposite to Assam Oil Petrol Pump",
        "contact": "03663 240021, 03663 243031",
        "latitude": 26.164643,
        "longitude": 90.624877
    },
    {
        "name": "Kushal Konwar (KK) Civil Hospital Blood Bank",
        "address": "Abita Building, 1st floor,  Golaghat Near stataion Rd",
        "contact": "00377 428 0042, 03774 280265",
        "latitude": 26.510171,
        "longitude": 93.964569
    },
    {
        "name": "Vivekananda Kendra NRL Hospital Blood Bank",
        "address": "NRL Township, Numaligarh Refinery Complex",
        "contact": "03776-266-566,03776-266-700",
        "latitude": 26.591371,
        "longitude": 93.749516
    },
    {
        "name": "S. K. Roy Civil Hospital Blood Bank",
        "address": "Hailakandi Civil Hospital, NH 154, Bashdahar, Hailakandi",
        "contact": "03744 281443, 03744 222423",
        "latitude": 24.671769,
        "longitude": 92.563355
    },
    {
        "name": "Jorhat Medical College and Hospital Blood Bank",
        "address": "Telemedicine Department, KB Road, Kushal Nagar, Tarajan",
        "contact": "0376 2370155",
        "latitude": 26.742573,
        "longitude": 94.195109
    },
    {
        "name": "Mahendra Mohan Choudhury (MMC) Hospital  Blood Bank",
        "address": "Panbazar, Guwahati",
        "contact": "0361 2733004",
        "latitude": 26.185505,
        "longitude": 91.740485
    },
    {
        "name": "Dispur Blood Bank",
        "address": "Ganeshguri, Dispur",
        "contact": "0825 399124 ext 222",
        "latitude": 26.149823,
        "longitude": 91.786638
    },
    {
        "name": "Saharia&#39;s Path Lab & Blood Bank",
        "address": "Guwahati - Shillong Rd, Near Petrol Pump, ABC, Bhangagarh Opposite Anil Plaza",
        "contact": "0361-2458595, 0361 245 8594",
        "latitude": 26.16274,
        "longitude": 91.770664
    },
    {
        "name": "International Hospital Blood Bank",
        "address": "Lotus Tower, G.S. Road, Christian Basti",
        "contact": 3617135005,
        "latitude": 26.154059,
        "longitude": 91.781267
    },
    {
        "name": "Hayat Hospital Blood Bank",
        "address": "Odalbakra, Lalganesh",
        "contact": "0361-2475550/51/52/53/54",
        "latitude": 26.139171,
        "longitude": 91.746199
    },
    {
        "name": "Rahman Hospital Private Limited Blood Bank",
        "address": "VIP Road, Sixmile, Khanapara,",
        "contact": "0361 233444",
        "latitude": 26.135133,
        "longitude": 91.809429
    },
    {
        "name": "GNRC Institute of Medical Sciences Blood bank",
        "address": "Sila Grant Town, North Guwahati , Near IIT Guwahati",
        "contact": "03612227700, 03612227701",
        "latitude": 26.202192,
        "longitude": 91.693312
    },
    {
        "name": "Central Hospital N. F. Railway Blood Bank",
        "address": "PNGB Road, Near Kamakhya Railway Station, Maligaon, Guwahati",
        "contact": "03612723762, 03612570492",
        "latitude": 26.151872,
        "longitude": 91.694899
    },
    {
        "name": "G.N.R.C. Hospital Blood Bank",
        "address": "Dispur, Guwahati",
        "contact": "0361 2227700",
        "latitude": 26.1391,
        "longitude": 91.794024
    },
    {
        "name": "Guwahati Medical College and Hospital (GMCH) State of The Art Model Blood Bank",
        "address": "GMCH Complex, GMCH Rd, Bhangagarh, Guwahati",
        "contact": "0361 252 9457",
        "latitude": 26.159914,
        "longitude": 91.768498
    },
    {
        "name": "Dr. B. Borooah Cancer Institute Blood Bank",
        "address": "Gopinath Nagar, Birubari, Guwahati",
        "contact": "0361 2472366, 0361 2472636",
        "latitude": 26.165087,
        "longitude": 91.747674
    },
    {
        "name": "Down Town Hospital Blood Bank",
        "address": "4th Floor, Buiding No:1, G.S. Road, Dispur",
        "contact": "00361 2332741, 0361 2334168",
        "latitude": 26.136151,
        "longitude": 91.796833
    },
    {
        "name": "Ganga Hospital Blood Bank",
        "address": "G. S. Road, Lachit Nagar, Ulubari,  Near KFC; Neubari",
        "contact": "0361 2454742",
        "latitude": 26.172081,
        "longitude": 91.759992
    },
    {
        "name": "Surakhya  Blood Bank",
        "address": "Arya Hospital complex, A.M. Road, Rehabri Opposite Apsara Cinema Hall",
        "contact": "03612606665, 0361 2606888",
        "latitude": 26.175065,
        "longitude": 91.75257
    },
    {
        "name": "Marwari Hospital and Research Centre Blood Bank",
        "address": "Sati Jaymati Road, Athgaon",
        "contact": "0361 2733737",
        "latitude": 26.172012,
        "longitude": 91.740106
    },
    {
        "name": "Sanjevani Hospital Blood Bank",
        "address": "Maligaon,  Guwahati",
        "contact": "0361 2674892",
        "latitude": 26.161206,
        "longitude": 91.70941
    },
    {
        "name": "Narayana Hrudayalaya Limited Blood Bank",
        "address": "Tularam Bafana Civil Hospital Campus, North Guwahati, Amingaon.",
        "contact": 3612680321,
        "latitude": 26.20775,
        "longitude": 91.678242
    },
    {
        "name": "Karimganj Civil Hospital Blood Bank",
        "address": "Karimganj",
        "contact": "03843260490, 03844 263200",
        "latitude": 24.867595,
        "longitude": 92.361806
    },
    {
        "name": "R.N.B. Civil Hospital Blood Bank",
        "address": "Habrubil, Gossaigaon, Kokrajhar",
        "contact": "03661 276436",
        "latitude": 26.452881,
        "longitude": 89.976397
    },
    {
        "name": "North Lakhimpur Civil Hospital Blood Bank",
        "address": "North Lakhimpur",
        "contact": "03752 242240, 03752 243182",
        "latitude": 27.242685,
        "longitude": 94.106483
    },
    {
        "name": "Haji Abdul Majid Memorial Hospital and Research Centre Blood Bank",
        "address": "Hojai, Nagaon",
        "contact": "03674-252514",
        "latitude": 26.015994,
        "longitude": 92.868186
    },
    {
        "name": "B.P. Civil Hospital Blood Bank",
        "address": "Civil Road, Nagaon",
        "contact": "03672-251105",
        "latitude": 26.344942,
        "longitude": 92.689464
    },
    {
        "name": "North East Blood Bank and Research Centre",
        "address": "N.H. 37, Haibargaon,",
        "contact": "03672 223351",
        "latitude": 26.344263,
        "longitude": 92.680991
    },
    {
        "name": "S. M. K. Civil Hospital Blood Bank",
        "address": "Maszid Road",
        "contact": "03624-223555",
        "latitude": 26.448222,
        "longitude": 91.435618
    },
    {
        "name": "Nalbari Maternity Hospital Blood Bank",
        "address": "Alternative Road",
        "contact": 3624220840,
        "latitude": 26.440614,
        "longitude": 91.43584
    },
    {
        "name": "Catholic Hospital Blood Bank",
        "address": "Borgang",
        "contact": 3715291162,
        "latitude": 26.815339,
        "longitude": 93.320185
    },
    {
        "name": "Kanaklata Civil Hospital Blood Bank",
        "address": "Main Road, Tezpur",
        "contact": "003712-252999, 03712 220033",
        "latitude": 26.628524,
        "longitude": 92.796499
    },
    {
        "name": "Tezpur Medical College Hospital Blood Bank",
        "address": "Bihaguri",
        "contact": "03712 241344",
        "latitude": 26.680968,
        "longitude": 92.653349
    },
    {
        "name": "Indian Oil Corp Ltd (AOD) Hospital blood bank",
        "address": "IOCL, Assam Division, Digboi",
        "contact": "03751-263515",
        "latitude": 27.39287,
        "longitude": 95.62943
    },
    {
        "name": "Tinsukia Civil Hospital Blood Bank",
        "address": "Bordoloi Nagar, Tinsukia",
        "contact": "0374 2308343",
        "latitude": 27.498632,
        "longitude": 95.358861
    },
    {
        "name": "Tinsukia Blood Bank",
        "address": "S.R. Lohia Road, Chiravapathy, IMA House, Tinsukia",
        "contact": "0374 2332080",
        "latitude": 27.490438,
        "longitude": 95.363017
    },
    {
        "name": "Sadar Hospital Aurangabad Blood Bank",
        "address": "Old  G.T. Road",
        "contact": "06186 224533",
        "latitude": 24.7528199,
        "longitude": 84.3743187
    },
    {
        "name": "Meera Nursing Home Blood Bank and Research Centre",
        "address": "Pokharia Rd, Chitragupta Nagar, Begusarai,",
        "contact": "06243 222250",
        "latitude": 25.4160152,
        "longitude": 86.139803
    },
    {
        "name": "Rastra Kavi Dinkar Blood Bank",
        "address": "Sadar Hospital, Begusarai",
        "contact": "06243 220072",
        "latitude": 25.4138,
        "longitude": 86.13596
    },
    {
        "name": "Jawaharlal Nehru Medical College Hospital (JNMCH) Blood Bank",
        "address": "Mayaganj, Tilkamanjhi,",
        "contact": "0641 2409555",
        "latitude": 25.264217,
        "longitude": 87.002126
    },
    {
        "name": "Darbhanga Medical College and Hospital (DMCH) Regional Blood Bank",
        "address": "Darbhanga Surgery Building, Ground Floor, DMCH Campus, DMCH Road",
        "contact": "06272 233 092",
        "latitude": 26.133426,
        "longitude": 85.898943
    },
    {
        "name": "Indian Red Cross Society Blood Bank, Motihari",
        "address": "Red Cross Society Sadar Hospital road, Motihari, Red Cross Bhawan, Hospital Road",
        "contact": "06252 22202, 06252 232202",
        "latitude": 26.647477,
        "longitude": 84.910299
    },
    {
        "name": "Duncan Hospital Blood Bank",
        "address": "Near Nepal Custom Gate, East Champaran District, Raxaul",
        "contact": "06255 220653, 06255 222641",
        "latitude": 26.9895674,
        "longitude": 84.8506073
    },
    {
        "name": "Anugrah Narayan Memorial Magadh Medical College Hospital (ANMMCH) Blood Bank",
        "address": "Sher Ghati Road",
        "contact": "0631 2410339",
        "latitude": 24.771176,
        "longitude": 84.960302
    },
    {
        "name": "Sadar Hospital, Gopalganj Blood Bank",
        "address": "Ward No. 15, Gopalganj",
        "contact": "06156-224754",
        "latitude": 26.460762,
        "longitude": 84.441119
    },
    {
        "name": "Sadar Hospital Jamui Blood Bank",
        "address": "185, Khan Hospital Road",
        "contact": 6345222820,
        "latitude": 25.20523,
        "longitude": 85.514552
    },
    {
        "name": "Amar Saheed Jagdeo Prasad, Sadar Hospital Jehanabad Blood Bank",
        "address": "P G Road, Arwal More",
        "contact": "06114 225857",
        "latitude": 40.267194,
        "longitude": 86.134902
    },
    {
        "name": "Sadar Hospital Kaimur (Bhabua) Blood Bank",
        "address": "Kachahari Road, Kaimur",
        "contact": "06189 223254",
        "latitude": 25.039579,
        "longitude": 83.607736
    },
    {
        "name": "Katihar Medical College Blood Bank",
        "address": "Karim Bagh, Post Box No. 23",
        "contact": "06452 239202",
        "latitude": 25.5827911,
        "longitude": 87.5498396
    },
    {
        "name": "Sadar Hospital Khagaria Blood Bank",
        "address": "Ward Number 14, Khagaria",
        "contact": "06244 222 134",
        "latitude": 25.50788,
        "longitude": 86.474581
    },
    {
        "name": "Mata Gujri Memorial (MGM) Blood Bank",
        "address": "Medical College and Lions Seva Kendra Hospital Blood Bank",
        "contact": "06456 223475",
        "latitude": 26.102327,
        "longitude": 87.9687313
    },
    {
        "name": "Sadar Hospital Kishanganj Blood Bank",
        "address": "Hospital Road",
        "contact": "06456 223502, 06456 226464",
        "latitude": 26.101776,
        "longitude": 87.948834
    },
    {
        "name": "Sadar Hospital Muzaffarpur Blood Bank",
        "address": "Sutapatti, Pokhraira, Near Muzaffarpur Railway Station",
        "contact": "0625-2266055, 0625-2266056",
        "latitude": 26.1226051,
        "longitude": 85.3797431
    },
    {
        "name": "Sinha Blood Bank Muzaffarpur",
        "address": "Ward no. 5, Imlichatti Sinha Blood Bank (A unit of Dr. A.K. Sinha Nursing Home)",
        "contact": "0621 2216140",
        "latitude": 26.1262394,
        "longitude": 85.3749922
    },
    {
        "name": "Sri Krishna Medical College Hospital (SKMCH) Blood Bank",
        "address": "National Highway 77, Uma Nagar, Rasulpur Saidpur Bazid",
        "contact": "0621 2233033",
        "latitude": 26.167644,
        "longitude": 85.392082
    },
    {
        "name": "Krishna Devi Devi Prasad Kejriwal Maternity Hospital Blood bank",
        "address": "Juran   Chapra, Road No.2,",
        "contact": "0621 2216309;2216410",
        "latitude": 26.1288882,
        "longitude": 85.3756369
    },
    {
        "name": "Nalanda Blood Bank (A Unit of Janata Karah Kalyan Samaj)",
        "address": "Nalanda Blood Bank (A Unit of Janata Karah Kalyan Samaj), Azizghat Main Rd, Baradari, Bihar Sharif,",
        "contact": "06112230856, 06112688765",
        "latitude": 25.2027187,
        "longitude": 85.5293999
    },
    {
        "name": "Bharat Blood Bank",
        "address": "Churi Market, Near jahaji kothi, churi market Kadamkuan,",
        "contact": "0612 2675213",
        "latitude": 25.6137055,
        "longitude": 85.152585
    },
    {
        "name": "Kurji Holy Family Hospital Blood Bank",
        "address": "Danapur Road, Sadaquat Ashram P.O, Kurji",
        "contact": "0612 2252156, 0612 2264117, 0612 2262540",
        "latitude": 25.6357241,
        "longitude": 85.1120992
    },
    {
        "name": "National Blood Bank & Resarch Center",
        "address": "NC/ 2B Main Road, Kankarbagh, Near Sri Ram Hospital",
        "contact": "0612 2355575",
        "latitude": 25.6001041,
        "longitude": 85.1543704
    },
    {
        "name": "Nalanda Medical College and Hospital Blood Bank",
        "address": "Agamkuan, Near Shitla Mandir",
        "contact": "0612-2918523/2631159",
        "latitude": 25.594095,
        "longitude": 85.137565
    },
    {
        "name": "Lions Mahavir Cancer Sansthan Blood Bank",
        "address": "Mahavir Cancer Sansthan, Phulwarisharif",
        "contact": "0612 2250127, 0612 2253956 (Ext. Blood Bank - 400)",
        "latitude": 25.5782712,
        "longitude": 85.0812062
    },
    {
        "name": "Tripolia Social Service Hospital and Blood Bank",
        "address": "Gulzarbarg",
        "contact": "0612 2311065",
        "latitude": 25.6096329,
        "longitude": 85.2035187
    },
    {
        "name": "Shashi Blood Bank",
        "address": "Shashi Blood Bank, Ashok Rajpath, Patna",
        "contact": "0612 2303365",
        "latitude": 25.619308,
        "longitude": 85.159459
    },
    {
        "name": "Patliputra Blood Bank",
        "address": "Opp. ENT Outdoor, Patna Medical College Hospital, Ashok Rajpath Road, Bankipur",
        "contact": "0612 2300840",
        "latitude": 25.619186,
        "longitude": 85.161053
    },
    {
        "name": "Bihar State Patna Medical College and Hospital (PMCH) Blood Bank",
        "address": "Ashok Raj Path, Bankipore",
        "contact": "0612 2300334",
        "latitude": 25.619794,
        "longitude": 85.158851
    },
    {
        "name": "Indian Red Cross Society (IRCS) Patna Blood Bank",
        "address": "Indian Red Cross Bhawan, North Gandhi Maidan",
        "contact": "0612 2201035",
        "latitude": 25.619909,
        "longitude": 85.145263
    },
    {
        "name": "Jaiprabha Hospital Model Blood Bank (MBB)",
        "address": "State of art Model Blood Bank, Jai Prabha Hospital Campus, P.C.Colony, Kankarbagh, Near Ganga Devi Mahila Maha Vidyalaya",
        "contact": "0612 2355805",
        "latitude": 25.60017,
        "longitude": 85.152281
    },
    {
        "name": "Paras HMRI Hospital Blood Bank",
        "address": "NH 30, Bailey Road, Raja Bazar",
        "contact": "06127107828, 0612 710770 (Ext. 7828)",
        "latitude": 25.6053351,
        "longitude": 85.0826713
    },
    {
        "name": "Indira Gandhi Institute of Medical Sciences (IGIMS) Blood Bank",
        "address": "Baily Road, Sheikpura, Raja Bazar, Near Sanjay Gandhi Botanical Garden",
        "contact": "0612 2297631, 0612 2297099 (Ext - 125)",
        "latitude": 25.611687,
        "longitude": 85.089567
    },
    {
        "name": "Life Line Blood Bank",
        "address": "Govind Mitra Road",
        "contact": "0612 2301600",
        "latitude": 25.6176632,
        "longitude": 85.1597326
    },
    {
        "name": "Paras Hmri Hospital Blood Bank",
        "address": "Baily Road, Raja bazaar",
        "contact": "0612 7107777",
        "latitude": 25.6053351,
        "longitude": 85.0826713
    },
    {
        "name": "Ruban Memorial Hospital Blood Bank",
        "address": "19 Patliputra Colony, Near Patliputra Golambar",
        "contact": "0612 2270097, 0612 2270059",
        "latitude": 25.6277173,
        "longitude": 85.111875
    },
    {
        "name": "Indian Red Cross Society (IRCS) Blood Bank",
        "address": "Red Cross Blood Bank, Purnea, Red Cross Bhawan Line Bazar",
        "contact": "0654 244211",
        "latitude": 25.785486,
        "longitude": 87.488251
    },
    {
        "name": "Bose Clinic Blood Bank",
        "address": "Dehral on Sone, Canal Road, Rohtas",
        "contact": "06184 25009",
        "latitude": 24.9073192,
        "longitude": 84.1772973
    },
    {
        "name": "Sadar Hospital Sasaram Blood Bank",
        "address": "Rauza Road, Laxkariganj, Near Head Post Office, Sasaram",
        "contact": 6184227105,
        "latitude": 24.952782,
        "longitude": 84.013897
    },
    {
        "name": "Narayana Medical College and Hospital Blood Bank",
        "address": "Jamuhar Sasaram, Rohtas",
        "contact": "06184 281888",
        "latitude": 24.9388933,
        "longitude": 84.0986459
    },
    {
        "name": "Sadar Hospital Samastipur Blood Bank",
        "address": "14, State Highway 50, Azad Nagar, Samastipur,",
        "contact": "06274 222 331",
        "latitude": 25.857206,
        "longitude": 85.778507
    },
    {
        "name": "Sadar Hospital Sheikhpura Blood Bank",
        "address": "Near Dallu Chowk, Sheikhpura,",
        "contact": "06341 225172,  06341 225013",
        "latitude": 25.133195,
        "longitude": 85.841424
    },
    {
        "name": "Department of  Transfusion Medicine, PGIMER Blood Bank",
        "address": "Blood Bank, Department of Transfusion Medicine, Nehru Hospital, PGIMER, Sec-12, Chandigarh.",
        "contact": "0172 2756481",
        "latitude": 30.765913,
        "longitude": 76.775488
    },
    {
        "name": "Rotary and Blood Bank Society Resource Centre",
        "address": "Plot No:4, Dakshin Marg, Sector 37A, Chandigarh",
        "contact": "0172 2696057",
        "latitude": 30.74211,
        "longitude": 76.755138
    },
    {
        "name": "Government Medical College and Hospital Blood Bank",
        "address": "Department of Transfusion Medicine ,Government Medical College and Hospital, Sector-32, Chandigarh",
        "contact": "0172 2665253, 0172 2601023 (Extn. 1166)",
        "latitude": 30.709289,
        "longitude": 76.780536
    },
    {
        "name": "Government Multispeciality Hospital Blood Bank",
        "address": "Blood Bank, Government Multispeciality Hospital, Room No. 164 Sector 16 Chandigarh.",
        "contact": "0172 2701288",
        "latitude": 30.751021,
        "longitude": 76.780967
    },
    {
        "name": "Maharani Hospital Blood Bank",
        "address": "Lt. brkm .govtmedical college jagdalpur chandni chouk jagdalpur",
        "contact": "07782-225958",
        "latitude": 19.085071,
        "longitude": 82.023963
    },
    {
        "name": "Chhattisgarh Insititute of Medical Sciences (CIMS) Blood Bank",
        "address": "Gond Para, Gole Bazar",
        "contact": "07752221425, 077522 30030",
        "latitude": 22.087621,
        "longitude": 82.152265
    },
    {
        "name": "Bilaspur District Hospital Blood Bank",
        "address": "Sardar Vallabhbhai Patel District Govt Hospital, old bus stand road Opposite to Rajeev plaza",
        "contact": "07752 421898",
        "latitude": 22.074225,
        "longitude": 82.158399
    },
    {
        "name": "Apollo Hospital Blood Bank",
        "address": "Village - Lingyadih, Seepat Road",
        "contact": "07752 248300 - 1030/31",
        "latitude": 22.087007,
        "longitude": 82.177637
    },
    {
        "name": "Shri Rawatpura Sarkar Lok Kalyan Trust, Bilasa Blood Bank",
        "address": "2nd Floor, Bhawe Razab Ali Chamber,  Opposite to CIMS Hospital, Sadar Bazaar, Bilaspur",
        "contact": 7752656422,
        "latitude": 22.086695,
        "longitude": 82.152539
    },
    {
        "name": "NMDC Apollo Hospital Blood Bank",
        "address": "Bailadila Iron Ore Mines, Bacheli, Dantewada",
        "contact": "07857 230050",
        "latitude": 18.703695,
        "longitude": 81.248612
    },
    {
        "name": "District Hospital Blood Bank Dantewada",
        "address": "Civil Surgeon, District Hospital, Dantewada",
        "contact": "07856 252830",
        "latitude": 18.89362167,
        "longitude": 81.3504983
    },
    {
        "name": "NMDC Project Hospital Blood Bank",
        "address": "Bailadila Iron Ore Mine, Kirandul Complex",
        "contact": 7857255229,
        "latitude": 18.634249,
        "longitude": 81.252895
    },
    {
        "name": "Dhamtari Christian Hospital",
        "address": "Industrial Area, Raipur Road, Dhamtari",
        "contact": "077222 40362",
        "latitude": 20.718748,
        "longitude": 81.55154
    },
    {
        "name": "B.S.R. Cancer Hospital",
        "address": "B.S.R. Cancer Hospital (P.A.) Limited, Junwani Road, Smriti Nagar, Bhilai, Near T.I. Mall",
        "contact": 7884085100,
        "latitude": 21.216312,
        "longitude": 81.322622
    },
    {
        "name": "Chandulal Chandraker Memorial (C.C.M.) Medical College Blood Bank",
        "address": "Kachandur, Kurud-Road",
        "contact": "0788 6006061",
        "latitude": 21.251525,
        "longitude": 81.337451
    },
    {
        "name": "Durg District Hospital  Blood Bank",
        "address": "Civil Surgeon, District Hospital, Durg",
        "contact": 7882219888,
        "latitude": 21.187096,
        "longitude": 81.279227
    },
    {
        "name": "J.L.N Hospital & Research Center  Blood Bank",
        "address": "Sector-9 Bhilai",
        "contact": "0788 2856020",
        "latitude": 21.189732,
        "longitude": 81.316117
    },
    {
        "name": "Kawardha District Hospital Blood Bank",
        "address": "Civil Surgeon, District Hospital, Kawardha",
        "contact": "07741 235553, 07741 233413",
        "latitude": 22.036,
        "longitude": 81.221
    },
    {
        "name": "Kanker District Hospital Blood Bank",
        "address": "Civil Surgeon, District Hospital, Kanker",
        "contact": 7868241063,
        "latitude": 20.264724,
        "longitude": 81.495155
    },
    {
        "name": "Nehru Centenary Hospital Blood Bank",
        "address": "SECl Gevra Area, Gevra Project",
        "contact": "07815275309, 07815262456",
        "latitude": 22.3460511,
        "longitude": 82.5657545
    },
    {
        "name": "Bilash Blood Bank,KORBA",
        "address": "HIG-21, Ext. M. P. Nagar, Ghantaghar Chowk",
        "contact": 7759644655,
        "latitude": 22.358763,
        "longitude": 82.7203479
    },
    {
        "name": "Lions Blood Bank",
        "address": "Lahu ram Colony, Adarsh Nagar",
        "contact": "07759-246951",
        "latitude": 22.3588408,
        "longitude": 82.7201873
    },
    {
        "name": "Christian Hospital Blood Bank",
        "address": "Tilak Ward Lormi Road,  Mungeli",
        "contact": 775564003,
        "latitude": 22.070986,
        "longitude": 81.687633
    },
    {
        "name": "Ramakrishna Mission Ashram Blood Bank",
        "address": "Ramakrishna Mission Ashram, Narayanpur",
        "contact": "07781 252370",
        "latitude": 19.716626,
        "longitude": 81.229284
    },
    {
        "name": "District Hospital Blood Bank Mahasamund",
        "address": "Mahasamund Raipur Road, Kharora Village",
        "contact": 7723222203,
        "latitude": 21.1193227,
        "longitude": 82.0743057
    },
    {
        "name": "O.P. Jindal Hospital & Research Centre Blood Bank",
        "address": "Jindal Education and Welfare Society, INN Plaza, Kharsia Road, Patrapali",
        "contact": "07762 - 227034 (EXT: 43659)",
        "latitude": 21.927279,
        "longitude": 83.359147
    },
    {
        "name": "Sewa Blood Bank",
        "address": "Opposite to Kirodimal district hospital, Gopi Talkies Road",
        "contact": "07762 225400",
        "latitude": 21.890931,
        "longitude": 83.3966244
    },
    {
        "name": "Dr B R Ambedkar Memorial Hospital, Model Blood Bank",
        "address": "Room No:120, 1st Floor, Attached with PT.J.N.M Medical College, Jail Road",
        "contact": "0771 2890090",
        "latitude": 21.25076,
        "longitude": 81.639
    },
    {
        "name": "Indian Red Cross Society Blood Bank",
        "address": "Pt. J. N. M. Medical College premises, Jail Road, Raipur",
        "contact": "0771 2880111",
        "latitude": 21.15,
        "longitude": 81.38
    },
    {
        "name": "Thawait Blood Bank",
        "address": "Flat No: 201, Rajeev Gandhi Complex, Balashram Katchery Chowk, Near State Bank of India",
        "contact": "0771 4221709",
        "latitude": 21.2192959,
        "longitude": 81.6397101
    },
    {
        "name": "City Blood Bank",
        "address": "Adarsh Bazar, G.E Road, Near Vivekanand Ashram",
        "contact": "07714032241, 07716460810",
        "latitude": 21.240907,
        "longitude": 81.620688
    },
    {
        "name": "Sai Sahara Blood Bank",
        "address": "Garcha Complex, Jail Road",
        "contact": "0771 2551050",
        "latitude": 21.251385,
        "longitude": 81.629642
    },
    {
        "name": "Narayana Hrudayalaya MMI Blood Bank",
        "address": "NHMMI Hospital Campus, Lalpur, Dhamtari Road",
        "contact": "0771 4210902 (Ext-928)",
        "latitude": 21.21327,
        "longitude": 81.65767
    },
    {
        "name": "United Blood Bank",
        "address": "New Bus Stand, Pandri, Hotel Guru Ki Gali Mein, Near Raja Talab,",
        "contact": "077124 32002",
        "latitude": 21.2507583,
        "longitude": 81.6472233
    },
    {
        "name": "SSD Blood Bank",
        "address": "Katora Talab Chowk, Near Netaji Hotel, Opposite to Swapnil Nursing Home",
        "contact": "0771 2432511, 07712422980",
        "latitude": 21.235832,
        "longitude": 81.652249
    },
    {
        "name": "Chhattisgarh Blood Bank",
        "address": "Agarainal Ramkrishna Care Hospital Premises, Opp. RKC Complex, Great Eastern Rd, Ramkund,   Near Dhuppad Petrol Pump",
        "contact": "0771 4088109,  077130 60518",
        "latitude": 21.246825,
        "longitude": 81.61188
    },
    {
        "name": "Bilasa Blood Bank",
        "address": "Sr. HIG -10,Sector-03, Shanker Nagar",
        "contact": "0771-4009304",
        "latitude": 21.25435,
        "longitude": 81.66339
    },
    {
        "name": "Srishti Blood Bank",
        "address": "2nd Floor, Dhillon Complex, Near Sindhi School, Jawahar Nagar,",
        "contact": 7354111119,
        "latitude": 21.247,
        "longitude": 81.656
    },
    {
        "name": "Shree Narayana Hospital Blood Bank",
        "address": "Near Ganj Mandi, Behind Sector - 5, Devendra Nagar, Pandri",
        "contact": "0771 3001234",
        "latitude": 21.263533,
        "longitude": 81.649825
    },
    {
        "name": "Rajdhani Blood Bank",
        "address": "Main Road, Badhaipara",
        "contact": "0771 2292120, 0771 2292130",
        "latitude": 21.244963,
        "longitude": 81.630129
    },
    {
        "name": "Evangelical Mission Hospital Blood Bank",
        "address": "Tilda, P.O. Neora",
        "contact": "07721 - 233599",
        "latitude": 21.553982,
        "longitude": 81.79053
    },
    {
        "name": "Raipur Institute of Medical Science",
        "address": "RIMS Knowledge Park, Bhansoj Road, Off NH-6,",
        "contact": "0771-3053060-88 (29 Lines)",
        "latitude": 21.263176,
        "longitude": 81.637035
    },
    {
        "name": "Aashirwad Blood Bank",
        "address": "H. No. S-5, Rajiv Nagar, Shankar Nagar, Behind Cristal Arcade Complex",
        "contact": "0771 4043768",
        "latitude": 21.258245,
        "longitude": 81.66018
    },
    {
        "name": "Holy Cross Hospital Blood Bank",
        "address": "Ambikapur, Surguja District",
        "contact": "077742 23733",
        "latitude": 23.134176,
        "longitude": 83.193534
    },
    {
        "name": "Tej Blood Bank",
        "address": "Plot No. 3528/47, Jail Road, Babupara Opposite to Joda Talab",
        "contact": "07774 222666",
        "latitude": 23.117556,
        "longitude": 83.191169
    },
    {
        "name": "Indian Red Cross Society (IRCS) Blood Bank",
        "address": "IRCS Red Cross House, Opposite to Bus Stand",
        "contact": "0260 2640911, 0260 2640577",
        "latitude": 20.276266,
        "longitude": 73.008306
    },
    {
        "name": "Daman Raktadan Kendra",
        "address": "Government Hospital Marwad Campus,  Nani Daman.",
        "contact": "0260 2255110",
        "latitude": 20.433246,
        "longitude": 72.831276
    },
    {
        "name": "Diu District Blood Bank",
        "address": "Govt Hospital Near Sports Complex, Main Road, DIU",
        "contact": "02875 252480",
        "latitude": 20.712855,
        "longitude": 70.988929
    },
    {
        "name": "Indian Red Cross Society (IRCS) Blood Bank",
        "address": "1, Red Cross Road, Near Parliament House",
        "contact": "011-23711551",
        "latitude": 28.618675,
        "longitude": 77.21089
    },
    {
        "name": "Dr. Ram Manohar Lohia Hospital Blood Bank",
        "address": "161, Kali Bari Ln, Havelock Square, Type III, President&#39;s Estate,",
        "contact": "01123404291, 01123404298",
        "latitude": 28.3734,
        "longitude": 77.125
    },
    {
        "name": "Sucheta Kriplani Hospital Blood Bank",
        "address": "C-604, Shaheed Bhagat Singh Marg, Connaught Place, Opposite to Shivaji Stadium Bus Terminal",
        "contact": "011 23408271",
        "latitude": 28.63566,
        "longitude": 77.213327
    },
    {
        "name": "Govind Ballabh (G.B.) Pant Hospital Blood Bank",
        "address": "1, Jawahar Lal Nehru Marg, Delhi Gate",
        "contact": "011-23232011, 011 23234242",
        "latitude": 28.639542,
        "longitude": 77.235159
    },
    {
        "name": "Regional Blood Tranfusion Center Blood bank, Central Zone",
        "address": "2 Jawarlal Nehru Marg, Delhi Gate, Near UBPH",
        "contact": "011 23233809, 011 23231023",
        "latitude": 28.638986,
        "longitude": 77.23836
    },
    {
        "name": "Kasturba Hospital Blood Bank",
        "address": "Near Jama Masjid, Daryaganj",
        "contact": "0112 3282915 ext 202",
        "latitude": 28.648838,
        "longitude": 77.238017
    },
    {
        "name": "Sir Ganga Ram Hospital Blood Bank",
        "address": "Old Rajindra Nagar, Near Janki Devi College",
        "contact": "011 42251800, 011 42251868, 011 42251869, 011 42251872, 011 25750000, 011 25751111, 011 25735205, 011 25861463",
        "latitude": 28.638675,
        "longitude": 77.189489
    },
    {
        "name": "Lal Bahadur Shastri Hospital Blood Bank",
        "address": "Near Kalyanvas Colony / Mayur Vihar Phase -II, GNCTD Kichdipur",
        "contact": "011 22783633",
        "latitude": 28.617839,
        "longitude": 77.311452
    },
    {
        "name": "Max Super Specialty Hospital Blood Bank",
        "address": "Max Balaji Hospital (A unit of Balaji Medical and Diagnostic Research Centre), 108-A, Indraprastha Extension, Opposite Sanchar Apartment, Patparganj",
        "contact": "011 66242515, 011 43033333",
        "latitude": 28.633501,
        "longitude": 77.308836
    },
    {
        "name": "Dr. Hedgewar Arogaya Sansthan Blood bank",
        "address": "F-18, Karkardooma",
        "contact": "011 22301148, 011 22301149, 011 22309407",
        "latitude": 28.655875,
        "longitude": 77.293489
    },
    {
        "name": "Lions Blood Bank East Delhi",
        "address": "369, II Floor, FIE, Near M.C.D. Office, Patparganj Industrial Area Near Punjab National Bank",
        "contact": "011 43009747, 011-42828091",
        "latitude": 28.641094,
        "longitude": 77.309423
    },
    {
        "name": "Dharamshila Cancer Foundation and Research Centre Blood Bank",
        "address": "4th floor, Vasundhara Enclave, Near New Ashok Nagar Metro Station",
        "contact": 1143066436,
        "latitude": 28.602512,
        "longitude": 77.314182
    },
    {
        "name": "Northern Railway Central Hospital Blood Bank",
        "address": "Basant Lane, Connaught Place",
        "contact": "011 23747989, 011 23744150, 011 23744170",
        "latitude": 28.636518,
        "longitude": 77.217459
    },
    {
        "name": "Pushpawati Singhania Research Institute Blood bank",
        "address": "Press Enclave Marg, Sheikh Sarai, Phase-II",
        "contact": 1130611780,
        "latitude": 28.533218,
        "longitude": 77.225185
    },
    {
        "name": "Cardio Neuro Centre Blood Bank, AIIMS",
        "address": "AIIMS, Ansari Nagar",
        "contact": "011 26593625, 011 26593749",
        "latitude": 28.566539,
        "longitude": 77.20984
    },
    {
        "name": "Hindu Rao Hospital Blood Bank",
        "address": "G Block 4th floor, Near Civil Lines Malkaganj",
        "contact": "011 23905713",
        "latitude": 28.67538,
        "longitude": 77.212312
    },
    {
        "name": "St. Stephen&#39;s Hospital Blood Bank",
        "address": "Tis Hazari, Opposite to Tis Hazari Metro Station",
        "contact": "011 23966021, 011 23966022, 011 23966023, 011 23966024",
        "latitude": 28.665135,
        "longitude": 77.214542
    },
    {
        "name": "Sant Pramanand Hospital Blood Bank",
        "address": "18, Sham Nath Marg, Civil lines,",
        "contact": "011-23981260, 011 23994401, 011 23994402",
        "latitude": 28.677715,
        "longitude": 77.224099
    },
    {
        "name": "Swami Dayanand Hospital Blood Bank",
        "address": "Dilshad Garden",
        "contact": "011 22581031, 011 22583809",
        "latitude": 28.678471,
        "longitude": 77.304087
    },
    {
        "name": "Mission Jan Jagriti Blood Bank",
        "address": "MGS Hospital, 35/37 Rohtak road, West Punjabi Bagh Adjacent to Maharaja Aggarsen Hospital, Near Shivali park metro station",
        "contact": "011 47053443",
        "latitude": 28.606008,
        "longitude": 77.295437
    },
    {
        "name": "Sushruta Trauma Centre Blood Bank",
        "address": "Civil Lines, 9, Metcalf Road",
        "contact": "011 23906014, 011 23906028",
        "latitude": 28.680339,
        "longitude": 77.227674
    },
    {
        "name": "Sanjay Gandhi Memorial Hospital Blood Bank",
        "address": "S-Block, Mangolpuri",
        "contact": "011 27922843, 011 27916137",
        "latitude": 28.692792,
        "longitude": 77.081656
    },
    {
        "name": "Sunder Lal Jain Charitable Hospital Blood Bank",
        "address": "Ashok Vihar, Phase-III",
        "contact": "011 47030900",
        "latitude": 28.691886,
        "longitude": 77.181583
    },
    {
        "name": "Max Super Specialty Hospital Blood Bank",
        "address": "Max Super Specialty Hospital (A Unit of Max Health Care Institute Ltd), FC-50, Block C and D, Shalimar Bagh",
        "contact": "011 66422222",
        "latitude": 28.727954,
        "longitude": 77.152927
    },
    {
        "name": "Lions Blood Bank",
        "address": "A.K.-100, Shalimar Bagh",
        "contact": "011 42258080, 011 47122000",
        "latitude": 28.704148,
        "longitude": 77.162213
    },
    {
        "name": "Mission Jan Jagriti Blood Bank",
        "address": "1, Altius Sonia Hospital, Basement, 1, Gulshan Park, Rohtak Road, Nangloi Metro Station, Metro Piller Number 444",
        "contact": "011 30580345, 011 30777777",
        "latitude": 28.501683,
        "longitude": 77.246745
    },
    {
        "name": "Saroj Super Speciality Hospital  Blood Bank",
        "address": "Saroj Super Speciality Hospital (Run by Ganesh Das Chowla Charitable Trust-Regd.), Sector-14, Rohini, Madhuban Chowk",
        "contact": "011 47903333, 011 27903276",
        "latitude": 28.70612,
        "longitude": 77.129045
    },
    {
        "name": "Rajiv Gandhi Cancer Institute and Research Center Blood Bank",
        "address": "Rajiv Gandhi Cancer Institute, Sector-V Rohini",
        "contact": "011 47022222, 011 27051011",
        "latitude": 28.716471,
        "longitude": 77.11093
    },
    {
        "name": "Dr. Baba Sahab Ambedkar Hospital Blood Bank",
        "address": "Sector-6, Rohini",
        "contact": "011 27049950, 011 27055585",
        "latitude": 28.715052,
        "longitude": 77.113639
    },
    {
        "name": "Delhi Heart and Lung Institute Blood Bank",
        "address": "3 MM-11, Panchkuian Road",
        "contact": "011 42999999, 011 42988899, 011 23538351",
        "latitude": 28.641636,
        "longitude": 77.205219
    },
    {
        "name": "Park Hospital Blood Bank",
        "address": "Keshopur Sabzi Mandi, New Chaukhandi, Vishnu Garden",
        "contact": "011 45323232",
        "latitude": 28.651772,
        "longitude": 77.093105
    },
    {
        "name": "Fortis Hospital Blood Bank",
        "address": "A-Block, Shalimar Bagh",
        "contact": "011 45302282",
        "latitude": 28.709162,
        "longitude": 77.170214
    },
    {
        "name": "Brahm Shakti Hospital and Research Centre Blood Bank",
        "address": "Brahma Shakti Hospital, U-1/78, Budh Vihar",
        "contact": "011 27537894, 011 27532428, 011 27531683, 011 27537967",
        "latitude": 28.712343,
        "longitude": 77.081205
    },
    {
        "name": "Guru Tegh Bahadur Hospital Blood Bank",
        "address": "G. T. B. Hospital, Shahdara",
        "contact": "011 22590148",
        "latitude": 28.683856,
        "longitude": 77.309903
    },
    {
        "name": "Holy Family Hospital Blood Bank",
        "address": "Holy Family Hospital, Okhla Road",
        "contact": "011 26332800",
        "latitude": 28.563012,
        "longitude": 77.275829
    },
    {
        "name": "Batra Hospital and Medical Research Centre Blood Bank",
        "address": "1, Tuglakabad Institutional Area, Mehrauli Badarpur Road, Tughlakabad",
        "contact": "011 29958747, 011 29957487",
        "latitude": 28.513468,
        "longitude": 77.245773
    },
    {
        "name": "All India Institute of Medical Sciences (AIIMS) Blood Bank",
        "address": "AIIMS, Main Blood Bank, Ansari Nagar, Ring Road",
        "contact": "011 26594438, 011 26594400",
        "latitude": 28.567152,
        "longitude": 77.20902
    },
    {
        "name": "Safdarjung Hospital Blood Bank",
        "address": "Safdarjung Hospital, Ansari Nagar, Ring Road",
        "contact": "011 26707254, 011 26707124",
        "latitude": 28.568016,
        "longitude": 77.205765
    },
    {
        "name": "Shri Moolchand Khariti-Ram Hospital and Ayurvedic Research Institute",
        "address": "Mool Chand Hospital, Lajpat Nagar-III",
        "contact": "011 42000476",
        "latitude": 28.566225,
        "longitude": 77.235575
    },
    {
        "name": "National Heart Institute Blood Bank",
        "address": "49, Community Center, East of Kailash",
        "contact": "011 26414156, 011 26414157",
        "latitude": 28.5574087,
        "longitude": 77.2457177
    },
    {
        "name": "Max Super Specialty Hospital Blood Bank",
        "address": "Max Super Specialty Hospital, Heart and Vascular Institute (A Unit of Devki Devi Foundation Institute), 2, Press Enclave Road, Saket",
        "contact": "011 26515050, 011 26505252",
        "latitude": 28.527512,
        "longitude": 77.213547
    },
    {
        "name": "Saket City Hospital Blood Bank",
        "address": "Mandir Marg, Press Enclave Road, Saket",
        "contact": "011 40699999, 011 71211062",
        "latitude": 28.527686,
        "longitude": 77.214348
    },
    {
        "name": "Rockland Hospital Qutab Blood Bank",
        "address": "B, 33-34, Qutab Institutional Area",
        "contact": "011 47667357",
        "latitude": 28.53736,
        "longitude": 77.181113
    },
    {
        "name": "Primus Ortho and Spine Hospital Blood Bank",
        "address": "Primus Super Speciality Hospital,02, Chandragupta Marg, Lower Ground Floor, Chanakyapuri",
        "contact": "011 66206630, 011 66206640",
        "latitude": 28.5929,
        "longitude": 77.181273
    },
    {
        "name": "White Cross Blood Bank",
        "address": "A-60, East of Kailash",
        "contact": "011 26831063, 011 26844140",
        "latitude": 28.560675,
        "longitude": 77.253601
    },
    {
        "name": "Rotary Blood Bank",
        "address": "56-57, Institutional Area, Tughlakabad , Next to Batra Hospital",
        "contact": "011 29054068, 011 29054066, 011 29962078",
        "latitude": 28.513434,
        "longitude": 77.24269
    },
    {
        "name": "Jai Prakash Narayan Apex Trauma Centre Blood Bank",
        "address": "Jai Prakash Narayen Apex Trauma Centre, AIIMS, Raj Nagar, Ring Road",
        "contact": "011 26731166, 011 26731179, 011 26731169, 011 26108000, 011 26109000",
        "latitude": 28.568128,
        "longitude": 77.200338
    },
    {
        "name": "Fortis Escort Heart Institute Blood Bank",
        "address": "Fortis Escort Heart Institute, Okhla Road",
        "contact": "011 26825053",
        "latitude": 28.560455,
        "longitude": 77.273777
    },
    {
        "name": "Hakeem Abdul Hameed Centenary Hospital Blood Bank",
        "address": "Jamia Hamdard, Hamdard Nagar",
        "contact": "011 26059668",
        "latitude": 28.513711,
        "longitude": 77.251861
    },
    {
        "name": "Apollo Hospital Blood Bank",
        "address": "Indraprastha Medical Corporation, Sarita Vihar",
        "contact": "011 26925801, 011 26925858, 011 26825707",
        "latitude": 28.540647,
        "longitude": 77.283445
    },
    {
        "name": "Armed Forces Transfusion Centre Blood Bank",
        "address": "Delhi Cantonment, Area Sadar Bazar, Army Public School",
        "contact": "011 23336685",
        "latitude": 28.596425,
        "longitude": 77.117561
    },
    {
        "name": "Fortis Flt. Lt. Rajan Dhall Hospital Blood Bank",
        "address": "Fortis Flt. Lt. Rajan Dhall Hospital (A unit of Flt. Lt. Ranjan Dhall Charitable Trust Regd.), Sector-B, Pocket-1, Aruna Asaf Ali Marg, Vasant Kunj",
        "contact": "011 42776222",
        "latitude": 28.519397,
        "longitude": 77.160438
    },
    {
        "name": "Institute of Liver and Biliary Sciences Blood Bank",
        "address": "Institute of Liver and Biliary Sciences, D-1, Vasant Kunj",
        "contact": "011 46300000",
        "latitude": 28.506259,
        "longitude": 77.165051
    },
    {
        "name": "Mata Chanan Devi Hospital Blood Bank",
        "address": "Mata Chanan Devi Hospital, C-1 Janakpuri New Delhi",
        "contact": "011 45582193, 011 45582194",
        "latitude": 28.618861,
        "longitude": 77.078382
    },
    {
        "name": "Bhagat Chandra Hospital Blood Bank",
        "address": "RZF-1/1, Mahavir  Enclave, Palam",
        "contact": "011 45254525",
        "latitude": 28.593451,
        "longitude": 77.081221
    },
    {
        "name": "Indian Spinal Injuries Centre Blood Bank",
        "address": "Indian Spinal Injuries Centre, C-8, Vasant Kunj",
        "contact": "011 42255387",
        "latitude": 28.532663,
        "longitude": 77.141765
    },
    {
        "name": "Bensups Hospital Blood Bank",
        "address": "Bansups Avenue, Sector 12, Dwarka",
        "contact": "011 45017615",
        "latitude": 28.592838,
        "longitude": 77.044191
    },
    {
        "name": "Blood Bank Organisation",
        "address": "11/6-B, Shanti Chamber, Opposite Telephone Exchange, Pusa Road",
        "contact": "011 25721870",
        "latitude": 28.642777,
        "longitude": 77.18156
    },
    {
        "name": "E. S. I. Hospital Blood Bank",
        "address": "E S I Hospital, Basai  Darapur, Ring Road",
        "contact": "011 25970808, 011 25100664",
        "latitude": 28.657697,
        "longitude": 77.13012
    },
    {
        "name": "Maharaja Agrasen Hospital Blood Bank",
        "address": "Maharaja Agrasen Hospital, West Punjabi Bagh",
        "contact": "011 40777777 (Exte. 6700)",
        "latitude": 28.67408,
        "longitude": 77.134063
    },
    {
        "name": "Sri Balaji Action Medical Institute Blood Bank",
        "address": "Sri Balaji Action Medical Institute, FC-34, A-4, Paschim Vihar",
        "contact": "011 42888888, 011 45666666",
        "latitude": 28.673738,
        "longitude": 77.110226
    },
    {
        "name": "Dr. B. L. Kapoor Memorial Hospital Blood Bank",
        "address": "B. L. K. Memorial Hospital,  Pusa Road",
        "contact": "011 30653095, 011 30653926",
        "latitude": 28.643642,
        "longitude": 77.179979
    },
    {
        "name": "Kalra Hospital and Shri Ram Cardiothoracic and Neurosciences Center (SRCNC) Blood Bank",
        "address": "Kalra Hospital SRNCNC, A-4, Kirti Nagar",
        "contact": "011 45005700",
        "latitude": 28.657823,
        "longitude": 77.142691
    },
    {
        "name": "R.B.T.C (wz), Deen Dayal Upadhyay Hospital",
        "address": "Deen Dayal Upadhyay Hospital, Hari Nagar, Near Clock Tower",
        "contact": "011 25129345, 011 25494403, 011 25494405",
        "latitude": 28.583437,
        "longitude": 77.117583
    },
    {
        "name": "Jaipur Golden Hospital Blood Bank",
        "address": "Jaipur Golden Hospital, 2, Industrial Area,  Rohini, Sector-III",
        "contact": "011 27907248, 011 27907238, 011 27907000",
        "latitude": 28.697734,
        "longitude": 77.109478
    },
    {
        "name": "District Hospital Blood Bank",
        "address": "District Hospital, Pedem, Mapusa, Goa",
        "contact": "0832 2253387",
        "latitude": 15.597585,
        "longitude": 73.820198
    },
    {
        "name": "Goa Medical College Blood Bank",
        "address": "Goa Medical College, Bambolim, Tiswadi, Goa",
        "contact": "0832 2458724",
        "latitude": 15.463768,
        "longitude": 73.858813
    },
    {
        "name": "Hospicio Hospital Blood Bank",
        "address": "Hospicio Hospital, Margao, Salcete, Goa",
        "contact": "0832 2703801, 0832 2705664",
        "latitude": 15.27947,
        "longitude": 73.960567
    },
    {
        "name": "Apollo Victor Hospital Blood Bank",
        "address": "Apollo Victor Hospital, Malbhat, Margao",
        "contact": "0832 2728888",
        "latitude": 15.268835,
        "longitude": 73.965605
    },
    {
        "name": "SMRC&#39;s V. M. Salgaocar Hospital Blood Bank",
        "address": "SMRC&#39;s V.M.Salgaocar Hospital, Chicalim, off Airport Road, Vasco-da-Gama",
        "contact": "0832 6691919, 0832 2540218",
        "latitude": 15.395075,
        "longitude": 73.837127
    },
    {
        "name": "V. S. Hospital Blood Bank",
        "address": "C/o. Sheth, Vadilal Sarabhai (V.S.) Hospital, Ellisbridge, Ahmedabad",
        "contact": "079 26577621  (Extn.341)",
        "latitude": 23.020595,
        "longitude": 72.571659
    },
    {
        "name": "Smt. Shardaben Hospital Blood Bank",
        "address": "Smt. Laxmiben Chimanlal Lalbhai Blood Bank, C/o. The Superintendent, Smt. Shardaben Chimanlal Municipal General Hospital, Saraspur, Ahmedabad.",
        "contact": "079 22164261, 079 22924264",
        "latitude": 23.035285,
        "longitude": 72.617719
    },
    {
        "name": "L. G. Hospital Blood Bank",
        "address": "Sheth L.G. General Hospital and Blood Bank, Maninagar,  Ahmedabad",
        "contact": "079 25461380 / 81 / 82 / 83 / 84 (Extn. 219)",
        "latitude": 22.999464,
        "longitude": 72.60458
    },
    {
        "name": "Civil Hospital Blood Bank",
        "address": "Blood Bank, Department of IHBT, C/o.The Civil Hospital, Asarwa, Ahmedabad",
        "contact": "079 22683949/50/51/52/53/54/55, 07922683721-31 (Extn.1419)",
        "latitude": 23.051227,
        "longitude": 72.6055
    },
    {
        "name": "General Hospital Blood Bank Sola",
        "address": "Blood Bank, Civil Hospital, Sarkhej Highway, Near Gujarat High Court,  Sola, Ahmedabad",
        "contact": "079 27664349, 079 27432584, 079 27474359 (Exte.210)",
        "latitude": 23.082702,
        "longitude": 72.525858
    },
    {
        "name": "Indian Red Cross Society Blood Bank",
        "address": "Indian Red Cross Society, J. L. Thakore Red Cross Bhavan,  18-Gujarat Brahmkshatriya Society, Behind Suvidha Market, Paldi, Ahmedabad",
        "contact": "079 26651833, 079 26650855",
        "latitude": 23.012718,
        "longitude": 72.55774
    },
    {
        "name": "The Gujarat Cancer & Research Institute Blood Bank",
        "address": "The Gujarat Cancer & Research Institute, M.P. Shah Cancer Hospital, Civil Hospital Campus, Asarwa, Ahmedabad",
        "contact": "079 22681451, 079 22688061, 079 22688062, 079 2268 8000",
        "latitude": 23.039061,
        "longitude": 72.610263
    },
    {
        "name": "Institute of Kidney Disease and Research Centre",
        "address": "Blood Bank, The Institute of Kidney Disease and Research Centre, Civil Hospital Compound, Asarwa, Ahmedabad",
        "contact": "079 22687164, 079 22687165, 079 22687000, 079 22685609",
        "latitude": 23.051439,
        "longitude": 72.605577
    },
    {
        "name": "Help Voluntary Blood Bank",
        "address": "Help Voluntary Blood Bank (Green Cross Voluntary Blood Bank Pathology and RIA Laboratory) 6 and 7, Kotyark Complex, Opposite to L.G. Hospital, Maninagar, Ahmedabad",
        "contact": "079 65136744",
        "latitude": 23.000103,
        "longitude": 72.604863
    },
    {
        "name": "GUJARAT CANCER MEDICAL COLLEGE",
        "address": "Blood Bank, Gujarat Cancer Society Medical College Hospital and Research Centre,  Opp. D.R.M. office, Swadesi Mill compound, Near Chamunda Bridge,  Ahmedabad",
        "contact": "079 6648138,079 66048000",
        "latitude": 23.038706,
        "longitude": 72.610334
    },
    {
        "name": "General Hospital Blood Bank",
        "address": "Model Hospital Blood Bank, (ESIS), Blood Bank, Bapunagar, Ahmedabad",
        "contact": "079 22745770, 079 22743935",
        "latitude": 23.028114,
        "longitude": 72.623869
    },
    {
        "name": "Dr. Jivraj Mehta  Smarak Health Foundation Blood Bank",
        "address": "Blood Bank, Dr. Jivraj Mehta  Smarak Health Foundation, Bakeri Medical Research Centre, Arogya Dham, Dr. Jivraj Mehta Marg, Ahmedabad.",
        "contact": "079 22687164, 079 22687143",
        "latitude": 23.008319,
        "longitude": 72.543367
    },
    {
        "name": "Prathama Blood Centre",
        "address": "Prathama Blood Centre, B/H Jivraj Mehta Hospital, Near Lavanya Society, Dr. C.V. Raman Marg, Vasna, Ahmedabad",
        "contact": "079 26600101",
        "latitude": 23.006225,
        "longitude": 72.541921
    },
    {
        "name": "White Cross Blood Bank",
        "address": "White Cross Blood Bank (Vol.), 2nd Floor, Kandhari Building,  Opposite to S.T. Workshop, Naroda Road Patia, Naroda , Ahmedabad",
        "contact": "079 22815227",
        "latitude": 23.06573,
        "longitude": 72.636791
    },
    {
        "name": "Adarsh Pathology Laboratory and Blood Bank",
        "address": "Adarsh Pathology Laboratory and Blood Bank, 1st Floor, Samjuba Hospital, Bapunagar, Ahmedabad",
        "contact": "079 22749146, 079 22746672",
        "latitude": 23.033177,
        "longitude": 72.628422
    },
    {
        "name": "Gujarat Blood Bank Paldi",
        "address": "Gujarat Blood Bank (Voluntary), Pathology Laboratory, 101, Span Trade Centre, Opp. Kochrab Ashram, Near Paldi Char Rasta, Paldi, Ahmedabad",
        "contact": "079 27413719",
        "latitude": 23.016405,
        "longitude": 72.566328
    },
    {
        "name": "Karnavati Blood Bank and Pathology Lab",
        "address": "Karnavati Blood Bank and Pathology Lab, 36, Subhlaxmi Complex, Naranpura, Ahmedabad",
        "contact": "079 27415150",
        "latitude": 23.057858,
        "longitude": 72.552974
    },
    {
        "name": "Cross World Voluntary Blood Bank",
        "address": "Cross World Voluntary Blood Bank, Chandraprabhu Complex, Sardar Patel Cross Road, Ahmedabad",
        "contact": "079 26568004, 079 26401959",
        "latitude": 23.056322,
        "longitude": 72.570237
    },
    {
        "name": "Maha Gujarat Blood Bank",
        "address": "Maha Gujarat Blood Bank (Voluntary) and Pathology Lab, 21, Parth  Comp., Near Maninagar Fire Station, Maninagar, Ahmedabad",
        "contact": "079 25451331, 079 25461641",
        "latitude": 22.997578,
        "longitude": 72.603054
    },
    {
        "name": "Supratech Voluntary Blood Bank",
        "address": "Supratech Voluntary Blood Bank, Mild Stone Building, 1st Floor, Near Drive-in Cinema, Thaltej, Ahmedabad",
        "contact": "079 40058958, 079 40054400, 079 40057317",
        "latitude": 23.067721,
        "longitude": 72.512046
    },
    {
        "name": "Sterling Hospital",
        "address": "Blood Bank, Sterling Hospitals, Drive in Road, Near Gurukul, Memnagar Road, Ahmedabad",
        "contact": 7940011620,
        "latitude": 23.048798,
        "longitude": 72.531309
    },
    {
        "name": "Ami Pathology Laboratory and Blood Bank",
        "address": "Ami Pathology Laboratory and Blood Bank, 14-15 Baronet Tower (Complex), Tollnaka, Highway , Ramnagar, Sabarmati, Ahmedabad",
        "contact": "079 27501202",
        "latitude": 23.08705,
        "longitude": 72.592226
    },
    {
        "name": "Gujarat Blood Bank Naranpura",
        "address": "Gujarat Blood Bank (Voluntary) and Pathology Laboratory,   1-2, Subhlaxmi Complex, Naranpura, Ahmedabad",
        "contact": "079 27413719",
        "latitude": 23.055467,
        "longitude": 72.560224
    },
    {
        "name": "Indian Red Cross Society Blood Bank",
        "address": "Mahatma Muldas Red Cross Bhavan, Civil Hospital Campus",
        "contact": "02792 223034, 02792 232854",
        "latitude": 21.606994,
        "longitude": 71.22186
    },
    {
        "name": "Indian Red Cross Society Blood Bank",
        "address": "Blood Bank, Indian Red Cross Society, Sardar Bhavan, Opposite to Municipal Building, Sardar Ganj Road, Anand",
        "contact": "02692 243406, 02692 268822",
        "latitude": 22.554608,
        "longitude": 72.960402
    },
    {
        "name": "Indu Voluntary Blood Bank",
        "address": "Indu Voluntary Blood Bank Managed by Charotar Health Research Foundation Trust, Jashganga Complex, Station Road, Anand",
        "contact": "02692 259596",
        "latitude": 22.596385,
        "longitude": 72.80717
    },
    {
        "name": "Ghanshyam Pathlology Laboratory and Blood Bank",
        "address": "Ghanshyam Pathlology Laboratory and Blood Bank, Krishna Road,  B/h . Mayfair Hotel, Anand",
        "contact": "02692 252744,   02692 252667",
        "latitude": 22.556549,
        "longitude": 72.963992
    },
    {
        "name": "Lions Club Khambat Blood Bank",
        "address": "Blood Bank, The Secretary, Lions Club (Society), Lions Medical Centre, Pith Bazar, Khambhat, Anand District",
        "contact": "02698 220516",
        "latitude": 21.520533,
        "longitude": 70.454461
    },
    {
        "name": "A.D. Gorwala Karamsad Blood Bank",
        "address": "A.D.Gorwala Blood Bank, Pramukhswami Medical College and Shree krishna Hospital, Gokulnagar, Karamsad, Anand",
        "contact": "02692 228323, 02692 228324",
        "latitude": 22.539473,
        "longitude": 72.890433
    },
    {
        "name": "Indian Red Cross Society Blood Bank Petlad",
        "address": "Blood Bank, Indian Red Cross Society, Opposite to Ranchodji Temple, Petlad, Anand",
        "contact": "02697 222251",
        "latitude": 22.564674,
        "longitude": 72.96086
    },
    {
        "name": "Gandhi Lincon Hospital Blood Bank",
        "address": "Bhansali Trust sanchalit Voluntary Blood Bank, Gandhi Lincon Hospital, Nr.Municipal Complex, Nr. Sardar-Baug, Deesa,  Banaskantha",
        "contact": "02744 220172",
        "latitude": 24.256318,
        "longitude": 72.184372
    },
    {
        "name": "M. U. Pethani Voluntary Blood Bank, Palanpur",
        "address": "Bhagwan Mahavir Seva Samiti Sanchalit Mafatben Uttamlal Pethani Voluntary Blood Bank, Baradpura, Near Delhi Gate,                           Palanpur, Banaskantha",
        "contact": "02742 246914, 02742 245899",
        "latitude": 24.170367,
        "longitude": 72.435186
    },
    {
        "name": "General Hospital Blood Bank Palanpur",
        "address": "Blood Bank, General Hospital, Palanpur, Banaskantha",
        "contact": "02742 253083",
        "latitude": 24.175017,
        "longitude": 72.434692
    },
    {
        "name": "Gayatri Pathology Laboratory and Voluntary Blood Bank",
        "address": "Gayatri Pathology Laboratory and Voluntary Blood Bank, Kirti Chamber, Kirti Stambh Road, Palanpur, Banaskantha",
        "contact": "02742 253475",
        "latitude": 24.266228,
        "longitude": 72.183973
    },
    {
        "name": "Bhoomi Voluntary Blood Bank Palanpur",
        "address": "Bhoomi Voluntary Blood Bank, Paulamo House, Near Bridge,  Palanpur, Banaskantha",
        "contact": "02742 260632, 02742 260633, 02742 256475",
        "latitude": 24.162436,
        "longitude": 72.414225
    },
    {
        "name": "Vikas Voluntary Blood Bank",
        "address": "Vikas Voluntary Blood Bank, Computerized Pathology Laboratory, Kirti Harsh Complex, Nr. Gayatri Mandir, Highway Road, Deesa, Banaskantha",
        "contact": "02744 230342",
        "latitude": 24.264792,
        "longitude": 72.183378
    },
    {
        "name": "Dharti Voluntary Blood Bank",
        "address": "Dharti Voluntary Blood Bank, 1st Floor, Super Market S.T. Road, Dhanera, Banaskantha",
        "contact": "02748 222443",
        "latitude": 24.499781,
        "longitude": 72.020131
    },
    {
        "name": "Saraswati Voluntary Blood Bank",
        "address": "Saraswati Voluntary Blood Bank. Saraswati Hospital, Opposite to Petrol pump, Dhanera, Banaskantha",
        "contact": "02748 222011",
        "latitude": 24.499588,
        "longitude": 72.032557
    },
    {
        "name": "Gayatri Voluntary Blood Bank",
        "address": "Gayatri Voluntary Blood Bank, Kiran Complex,Highway Road,  Deesa, Banaskantha",
        "contact": "02744 230342",
        "latitude": 24.263756,
        "longitude": 72.162408
    },
    {
        "name": "Indian Red Cross Society Blood Bank",
        "address": "Blood Bank, Indian Red Cross Society, Sevashram Hospital Compound, Bharuch",
        "contact": "02642 244281, 02642 243603",
        "latitude": 21.725118,
        "longitude": 21.725118
    },
    {
        "name": "Kumarpal Gandhi Blood Bank",
        "address": "&#34;B&#34; Block,1st Floor, Near Palika Shopping Centre, Near Gujarat Gas Circle, Ankleshvar",
        "contact": "02646 244530",
        "latitude": 21.628147,
        "longitude": 72.995778
    },
    {
        "name": "Sir T. General Hospital Blood Bank",
        "address": "Blood Bank, Sir T. General Hospital, Dr. H. L. Vaidhya Marg,  Kalanala, Bhavnagar",
        "contact": "0278 2520091, 0278 2423250",
        "latitude": 21.767673,
        "longitude": 72.141981
    },
    {
        "name": "Bhavnagar Blood Bank",
        "address": "Bhavnagar Blood Bank, Ofice No. 1,2,3 - Plot No. 1686, B-Wing, 1st Floor, Municipal Commercial Complex, Sardar Nagar Circle, Sardarnagar, Bhavnagar",
        "contact": "0278 2561526",
        "latitude": 21.76982,
        "longitude": 72.160378
    },
    {
        "name": "Bambhaniya Voluntary Blood Bank",
        "address": "Bambhaniya Voluntary Blood Bank Trade Centre, Kalanain Circle, Bhavnagar",
        "contact": "0278 2224744, 0278 3004744",
        "latitude": 21.774103,
        "longitude": 72.143714
    },
    {
        "name": "Navkar Charitable Trust Mahuva Blood Bank",
        "address": "Blood Bank Navkar Charitable Trust, Opposite to Nagrik Bank, Vasi Talav, Mahuva, Bhavnagar",
        "contact": "02844 224464",
        "latitude": 21.088961,
        "longitude": 71.769089
    },
    {
        "name": "Smt. Sonalien A. Shah Blood Bank",
        "address": "Blood Bank, Omkar Paramedical Charitable Trust Organization, Smt. Sonaliben A. Shah Blood Bank, 2nd Floor, Patel Chamber,Paliad Road, Botad, Bhavnagar",
        "contact": "0278 255361, 0278 256099",
        "latitude": 22.178967,
        "longitude": 71.651792
    },
    {
        "name": "Tulsi Pathology Laboratory and Blood Bank",
        "address": "Tulsi Pathology Laboratory and Blood Bank, Bhairav Para,  Palitana, Bhavnagar",
        "contact": "02848 252707",
        "latitude": 21.529208,
        "longitude": 71.824705
    },
    {
        "name": "Indian Red Cross Society Blood Bank",
        "address": "Sanchalit Dr. Mohsinbai S. Lenwala Voluntary Blood Bank, Dr.Harilal C.Seth, Red Cross Bhavan, Police Line road, Dahod",
        "contact": "02673 224422/23",
        "latitude": 22.838831,
        "longitude": 74.254139
    },
    {
        "name": "Samarth Raktdan Kendra",
        "address": "Samarth Raktdan Kendra, Gausala chowk, Daulatgunj Bazar, Dahod",
        "contact": "02673 223139, 02673 242514",
        "latitude": 22.949278,
        "longitude": 73.630239
    },
    {
        "name": "Kiran Voluntary Blood Bank",
        "address": "Kiran Voluntary Blood Bank, Near Hotel Vrundavan, Station Road, Dahod",
        "contact": "02673 246212",
        "latitude": 22.839956,
        "longitude": 74.254361
    },
    {
        "name": "General Hospital Blood Bank Ahwa",
        "address": "Blood Bank, General Hospital, Ahwa, Dang",
        "contact": "02631 220205",
        "latitude": 20.761612,
        "longitude": 73.689241
    },
    {
        "name": "Indian Red Cross Society (IRCS), Kalol, Gandhinagar",
        "address": "Blood Bank, Indian Red Cross Society, Sheth C.S. Municipal Hospital, Kalol, Gandhinagar",
        "contact": "02764 227836",
        "latitude": 22.608583,
        "longitude": 73.459578
    },
    {
        "name": "GMERS MEDICL COLLEGE ATTACHED GENERAL HOSPITAL, GANDHINAGAR",
        "address": "Blood Bank, H-1 Block, First Floor, Civil Hospital Campus, Opposite to Pathik Ashram, Sector-12, Gandhinagar",
        "contact": "079 23221931, 079 23221932 Ext. 138",
        "latitude": 23.218597,
        "longitude": 72.641585
    },
    {
        "name": "Shraddhadeep Pathology Lab and Blood Bank",
        "address": "Shraddhadeep Pathology Lab and Blood Bank,  Shiv Complex , Plot no. 329, 1st Floor, Sector-16, Gandhinagar",
        "contact": "079 23222474",
        "latitude": 23.226929,
        "longitude": 72.646557
    },
    {
        "name": "Apollo Hospital International Limited Blood Bank",
        "address": "Blood Bank, Apollo Hospital International Limited, Block No. 1/A, GIDC estate, BHAT, Gandhinagar",
        "contact": "079 66701825",
        "latitude": 23.109635,
        "longitude": 72.625835
    },
    {
        "name": "Indian Medical Association (IMA) Blood Bank",
        "address": "Blood Bank, Indian Medical Association (IMA), Manasa Charitable Trust sanchalit C.M.K. and P.N.N. Voluntary Blood Bank, 1st floor, Vijay Complex,  Mansa-Gandhinagar Highway, Manasa-382845, Gandhinagar",
        "contact": "02763 270085",
        "latitude": 23.420056,
        "longitude": 72.653181
    },
    {
        "name": "G.G.Hospital Blood Bank",
        "address": "Blood Bank, The  M.P.Shah  Medical College and Guru Govindsinh Hospital, Jamnagar",
        "contact": "0288 2661052",
        "latitude": 22.48531,
        "longitude": 70.058561
    },
    {
        "name": "Jamnagar Voluntary Blood Bank",
        "address": "Jamnagar Voluntary Blood Bank, 1st Floor, Shakuntla Apart. Hawai Chowk, Jamnagar",
        "contact": "0288 2673339, 0288 2541070",
        "latitude": 22.461884,
        "longitude": 70.072017
    },
    {
        "name": "General Hospital Blood Bank",
        "address": "Blood Bank, General Hospital, Jamkhambhalia, Jamnagar",
        "contact": "02833 234704",
        "latitude": 22.208586,
        "longitude": 69.651914
    },
    {
        "name": "Tata Chemical Limited Blood Bank Mithapur",
        "address": "Blood Bank, Tata Chemical Limited, Okhamandal, Mithapur,  Jamnagar",
        "contact": 9227887029,
        "latitude": 22.205519,
        "longitude": 69.102536
    },